ID,이름,위도,경도,지역코드,이미지
1,성산일출봉 [유네스코 세계자연유산],33.45811112,126.9415156,3,http://post.phinf.naver.net/MjAxNjEyMThfMjk5/MDAxNDgyMDEyMzEzNjEz.YUEFi9CVYxW6QwblUFeKqytuo_8dQANezODrSuPTIFcg.G6P969_fhrAA9d7FL9_CUjKvzrMXS0VDuu2zPrCQD5Ug.JPEG/IcDzAcBh6Z4wQViCrT44uARgsuuE.jpg
2,표선 해비치 해변,33.32564354,126.8396358,3,https://dbscthumb-phinf.pstatic.net/2765_000_161/20181211034408921_OG3U0JXDC.jpg/456054.jpg?type=m4500_4500_fst
3,도두동 무지개해안도로,33.50938958,126.4724746,3,http://post.phinf.naver.net/MjAyMTEwMTJfMTYz/MDAxNjM0MDE4ODM5NTcw.9nit_2Q8a38bhnyvtfLVtgKWFjYxJEmKnlG-61oajDEg.aE30ZIyEU0cf26rAkcAf2uji9-xnBv1AqKtimMN4ecQg.PNG/IRSNgYcidnbGFaDWMP4pKJM4xSn8.jpg
4,방선문,33.45429361,126.5169053,3,http://imgnews.naver.net/image/112/2013/01/03/20130103000484_1_59_20130103110700.jpg
5,오현단,33.5102931,126.5255811,3,https://dbscthumb-phinf.pstatic.net/2765_000_122/20181203120043477_T4RUNIRH7.jpg/347754.jpg?type=m4500_4500_fst
6,알뜨르비행장 및 일본군 비행기 격납고,33.20312307,126.2727655,3,http://tong.visitkorea.or.kr/cms/resource/75/197675_image2_1.jpg
7,용수항,33.32356086,126.1649638,3,https://dbscthumb-phinf.pstatic.net/2765_000_227/20181224193852429_13J7TFETE.jpg/433460.jpg?type=m4500_4500_fst
8,갯깍주상절리대,33.30052845,126.4156981,3,http://post.phinf.naver.net/MjAxOTExMTJfMTcy/MDAxNTczNTY3OTIyMzQ5.srnzOWOq8jg16EATqi4wB0SIPEsZlUT41hyK4KvMa6sg.XcwSgW32PRZ2TnbnYevr4DRP14wtiRXeGiJtRl5R5eAg.JPEG/IU5mtaL5pbENQfPFrdq5dI5wV6PA.jpg
9,구시물,33.29539761,126.7120031,3,http://imgnews.naver.net/image/5025/2019/06/10/0000341669_002_20190610122638407.png
10,하고수동해변,33.51427461,126.9574574,3,https://www.popco.net/zboard/data2/dica_forum_sony/2016/04/28/240d1c9d773f0d160225c46e16799813.jpg
11,산지천,33.51620641,126.5299611,3,http://imgnews.naver.net/image/421/2021/10/28/0005685748_001_20211028100113348.jpg
12,만장굴 (제주도 국가지질공원),33.52804785,126.7706788,3,http://www.jeju.go.kr/files/board/e5814b72-8aa3-4c70-8420-25274b13b72b.jpg
13,화조원,33.41133773,126.3720161,3,https://file1.bobaedream.co.kr/national/2022/03/17/23/ljk91647526583_107811623.jpg
14,비양도선착장,33.41909071,126.2625727,3,http://imgnews.naver.net/image/047/2010/01/30/1264819442.813609_IE001160515_STD.JPG
15,나홀로나무,33.35095238,126.3492166,3,http://shop1.phinf.naver.net/20211216_72/1639646419589KoxbG_JPEG/40782314981442344_15187335.jpg
16,월정사(제주),33.46676157,126.5100973,3,http://imgnews.naver.net/image/5019/2019/05/06/0000240641_001_20190506232037636.jpg
17,서귀포 가시리마을 (녹산로 유채꽃도로),33.35327551,126.7716355,3,http://imgnews.naver.net/image/396/2019/04/10/0000509024_012_20190410030306418.jpg
18,천제연폭포,33.252656,126.4184295,3,https://www.popco.net/zboard/data/dica_forum_fujifilm/2018/10/26/2120842835bd2edcbaae1c.JPG
19,협재포구,33.38222792,126.2498107,3,https://fastly.4sqi.net/img/general/600x600/10605336_UFTYPLvFkppReutO1h8T1d_yEo6XrRaZ9ZqCouOb2lo.jpg
20,평화통일 불사리탑,33.5319647,126.6362432,3,http://tong.visitkorea.or.kr/cms/resource/08/1618408_image2_1.jpg
21,한라산 영실,33.34023064,126.4803111,3,https://cdn.ppomppu.co.kr/zboard/data3/2022/0109/20220109214223_3chSpkB9y4.jpeg
22,쇠소깍,33.25217874,126.6231007,3,http://post.phinf.naver.net/MjAyMDA1MDJfMTIy/MDAxNTg4NDA4NTA4OTU1.VzLq443KxIvFqylncCZYaZ5kzI9SwUnhVUGdRTnuWqEg.mgJQ3a-BQE-oQVTHwpOOD1Tse-ipm3HIQJjS7sUcnKgg.JPEG/IaIO1CJeoRI1JxfNmveNRyqKC4Aw.jpg
23,성산포성당,33.45399168,126.913657,3,https://dbscthumb-phinf.pstatic.net/2818_000_37/20211217225858359_RLIF552KK.jpg/2800010_image2_1.jpg?type=m4500_4500_fst
24,서귀포자연휴양림,33.31081973,126.4630827,3,http://post.phinf.naver.net/MjAyMjA2MDZfOTIg/MDAxNjU0NDcyNTIzMDcy.RuzQ_6Jkw5ul1yv9BnP5uKK5q8Bi-DeUayOZIaggKQYg.HqoliIb8JqBzwK5HKzno639gw73Z7htSm1Va01-N3ugg.JPEG/IZrVu1003JDlUkIhWfCDR42X7Cf0.jpg
25,휴림,33.44381004,126.4287993,3,https://ldb-phinf.pstatic.net/20220803_167/1659494020927P6g0z_JPEG/DSC_5701.jpg
26,물드리네,33.32274247,126.2269446,3,http://imgnews.naver.net/image/5085/2011/06/13/100618_109498_581.jpg
27,검멀레해변,33.49672951,126.9685513,3,http://post.phinf.naver.net/MjAyMTA5MjRfNDUg/MDAxNjMyNDUxNTg4MDYy.RBStJk3D3ZbU08bXj6rvEKRzFAElyMWrzHMpOzzPQSQg.we0xq9WbgnYtBkacOYYCBTb6FFfEzMuXtFmjb1hAuNEg.JPEG/IsKac4n5_7u9uaM7hwYSRXySaPSo.jpg
28,산지 등대,33.52091447,126.5456624,3,http://imgnews.naver.net/image/5452/2019/11/06/0000065560_001_20191106174125790.jpg
29,교래 삼다수마을,33.4363537,126.6768835,3,http://imgnews.naver.net/image/469/2018/02/01/0000275215_001_20180202045207891.jpg
30,동광리농촌체험마을,33.30665431,126.337102,3,http://imgnews.naver.net/image/014/2018/02/15/0003966071_002_20180226223622561.jpg
31,판포포구,33.3654401,126.1996321,3,http://post.phinf.naver.net/MjAxODA5MDhfMjc4/MDAxNTM2MzgxOTE1NDU0.CNLX55MUXCpGX-mgQOM8LLCaW6rvjzAUeVAu8lc9Fu8g.kUydGBQ-5T4-x8X6pmGb6bgYt2xocBB2bUykNLmDcBgg.JPEG/IHLY8y3fswzQmtupf3ZxECfFYTbI.jpg
32,마라도(마라해양도립공원),33.11863508,126.2674345,3,http://tong.visitkorea.or.kr/cms/resource/19/1281919_image2_1.jpg
33,북촌 돌하르방공원,33.5396036,126.6896606,3,https://dbscthumb-phinf.pstatic.net/2765_000_227/20181224184139890_79GJFVRD1.jpg/410272.jpg?type=m4500_4500_fst
34,비밀의 숲,33.45377803,126.7552818,3,http://post.phinf.naver.net/MjAyMDA4MjZfMTA5/MDAxNTk4NDE5Njk1NTcw.vs8bhp42sn4I2uxiEP8wOeEG2fvqWm3zJue8n7SB8bsg.arAMNWIvfgRpoAqGVBu4EpusGUI1y66e-novux-tCZsg.JPEG/IrHecjhqWSnSjqrcVWiey3UAQpVI.jpg
35,월정리해변(월정리해수욕장),33.55465368,126.7983897,3,http://post.phinf.naver.net/MjAxNzA3MjRfMTQw/MDAxNTAwODU2MTA0NTk2.m9WaHWd7ZhoyjcPCu4DpJovWiu5yDjQrJUHHvtoqESkg.Jcx00kIDNpM3DtRG28A4vXXasPdNVwTRQdYAjJttiPkg.JPEG/IcSLD-FtkZRSesNyG9mhFz5nCLlA.jpg
36,신화워터파크,33.30725953,126.319748,3,http://post.phinf.naver.net/MjAxOTA5MDZfNTQg/MDAxNTY3NzYyMDQ0NDM2.atK010ZqV4KZhIpMFQZ3tpXileD02FVsdr428Juz4JQg.BNmWZzE3L_-J3UPE8w6KtpNpeOEkhoPeqJGxLmZxbx4g.JPEG/IpHH927EU2uMPV4LRi4AwOjbE0Ds.jpg
37,약천사(제주),33.24536563,126.4496742,3,http://post.phinf.naver.net/MjAxNzA1MjBfMjYw/MDAxNDk1MjQ1NDA4NTEy.bs2pRTKiD8sdP6FLXcz6omhnSjc3zlBB29B3kPI6L7Ug.lVHaOBncDp15BHLYotlv_GOTk0lnjzxWY6IlebqCjiYg.JPEG/IqNtVs85gmVM3eS1Y7dQTtre6QLQ.jpg
38,고살리 숲길,33.31729338,126.5984791,3,https://post-phinf.pstatic.net/MjAyMTA4MTZfMTE3/MDAxNjI5MDc4MzI2MDE4.0fJre2-Gn0eLtl-BMITMqSvHVy63-KFiueiPQMwdzEcg.NYJMfcPV3E5w6WETS80r1XQhi1zmnruCFh4ajDvEBuIg.JPEG/IinZHAqJBhwx7SkwP9sJKY7iasQ0.jpg?type=m4500_4500_fst
39,성산세화해안도로,33.51009092,126.9065285,3,http://tong.visitkorea.or.kr/cms/resource/16/2799516_image2_1.jpg
40,김녕항 / 김녕포구,33.55807736,126.7400447,3,http://tong.visitkorea.or.kr/cms/resource/25/2800225_image2_1.jpg
41,선흘2리마을,33.45690759,126.7142937,3,http://imgnews.naver.net/image/5710/2019/09/02/0000005153_001_20190902001750106.jpg
42,이중섭 문화거리,33.24763941,126.5640059,3,http://imgnews.naver.net/image/5164/2014/06/04/71bc0ef708f7ccc4f1f14974bbb46b2c153832_59_20140604110304.jpg
43,조랑말체험공원,33.38333551,126.7358351,3,http://post.phinf.naver.net/MjAxNzA0MjdfMTc1/MDAxNDkzMjU2NTUzNjUx.7NUr3ukqbNWoMh_Svw7QXZp6KbqveB3qam2ZaBZKzHAg.zoXRf7X_d_UTMfy-_U9oUB-p-hrAzj3kNeYeX7WieAMg.JPEG/INVgMcl-ARpASxEl4C9J3tDMVq3M.jpg
44,하멜기념비,33.23374812,126.31465,3,http://imgnews.naver.net/image/001/2017/08/14/PYH2017081411110005600_P2_20170814134815569.jpg
45,새별오름,33.36736458,126.3570489,3,https://resource.tranggle.com/track_image/origin/2021/09/MjAyMTA5MjExNzAzMzJJbWFnZTAxKGRsZjYwODdAbmF2ZXIuY29tLTIwMjEwOTIxXzE3MDM0MSk=.jpg
46,서귀진지,33.2432288,126.5648115,3,http://imgnews.naver.net/image/003/2010/06/14/NISI20100614_0003000599_web.jpg
47,구두미포구,33.23706054,126.5968255,3,http://tong.visitkorea.or.kr/cms/resource/17/2800317_image2_1.jpg
48,신산공원,33.5052799,126.5337916,3,http://post.phinf.naver.net/MjAxNzA0MTFfNTMg/MDAxNDkxOTIxMzYyMjU0.TuW5c_wqZl9ZzfGrGu2h6LjRDSqMd7NcSo_ngQyqGfgg.M9LHWb__lqNRYbNEcmMFWDrXRtWn2KNC0V35ZcTr_Mgg.JPEG/I7ncOz8VZCm2wI4dSVBBtlhSHqxo.jpg
49,고내포구,33.4670588,126.337915,3,http://here.busan.com/data/editor/1805/c338d48a249f90ff91e62019172d1a19_1525409298_6722.jpg
50,한림항,33.41909071,126.2625727,3,http://imgnews.naver.net/image/001/2022/07/08/PYH2022070812540005600_P4_20220708152511323.jpg
51,불탑사(제주),33.52915884,126.5978743,3,http://imgnews.naver.net/image/5452/2018/04/23/0000034708_002_20180423190633385.jpg
52,사라봉(모충사) 의병항쟁기념탑,33.51617335,126.5470457,3,http://imgnews.naver.net/image/5466/2022/06/21/0000030287_001_20220621140002505.jpg
53,서귀포 예래생태마을,33.25425828,126.3979423,3,http://imgnews.naver.net/image/5267/2016/08/03/282670_182886_0108_99_20160803140304.jpg
54,신풍 신천 바다목장,33.35600169,126.8638108,3,http://post.phinf.naver.net/MjAyMTA4MDRfMTE0/MDAxNjI4MDg1MTc0NzU3.9shbsiFG7UFQVZ7DsBNqgp7vVVi4YFE0SgsN_isVbc8g.qEtUBltlZFwhSk6rjzO6f7lEaMHEqjXMBdnDRnA2Rg4g.JPEG/ISCAbcBOuTj7aY0bYKcMMTOS_lhc.jpg
55,고배기동산,33.33083012,126.3817115,3,https://cdn.clien.net/web/api/file/F01/12921189/19cc6f0155308d.jpg?w=780&h=30000
56,제주향교,33.51115952,126.5158347,3,http://imgnews.naver.net/image/5104/2017/10/29/2023569_138014_3051_20171029184110108.jpg
57,화북포구,33.52553648,126.5645634,3,https://resource.tranggle.com/board_v3/story/2022/20220424/122237_b34727aae0ce08efd1348c531d8710843ff56c84_960x.jpg
58,한라생태숲,33.43194182,126.5982321,3,http://post.phinf.naver.net/MjAxOTA1MTVfOTQg/MDAxNTU3OTAzMzc5ODQ3.sFr9p8Vy_NfFBdXP62V3u80LJ73E5DyvY3V-8VVx5ocg.tk-qGZG1_iGS3N2zbmIt2gujboxy9s6fgvTbDvkRZ9sg.JPEG/I0lmt5lmLlUxR442PIU_S9EQuyxw.jpg
59,한라산 (제주도 국가지질공원),33.39273062,126.4948725,3,http://imgnews.naver.net/image/5415/2021/11/30/0000167531_001_20211130083202365.png
60,보덕사(제주),33.49170361,126.532492,3,http://imgnews.naver.net/image/5019/2010/11/26/50190000035032_0.jpg
61,소인국테마파크,33.29071973,126.3221787,3,https://dbscthumb-phinf.pstatic.net/2765_000_165/20181212025746231_OTI9TCDBU.jpg/451844.jpg?type=m4500_4500_fst
62,우도(해양도립공원),33.51950171,126.95103,3,http://imgnews.naver.net/image/5710/2019/07/12/0000004261_001_20190712180514236.png
63,월령포구,33.3785528,126.2163109,3,http://imgnews.naver.net/image/5264/2022/02/18/0000597159_002_20220218175601819.jpg
64,제주양떼목장,33.41138206,126.3652278,3,http://tong.visitkorea.or.kr/cms/resource/30/2800530_image2_1.jpg
65,신창풍차해안도로,33.34344769,126.1739015,3,https://dbscthumb-phinf.pstatic.net/2765_000_323/20190123040659082_5RH6AU4AL.jpg/8495986.jpg?type=m4500_4500_fst
66,성산포JC공원,33.43921268,126.909105,3,http://post.phinf.naver.net/MjAyMjA4MTBfMTMx/MDAxNjYwMDk3NzE4NDc2.UEDKb6kPZY3wcHJjRCCMlM7XBIm19VZRggknywr5He4g.4JQ70W28meuortnN-pGJfNs43QzvZa3rub9roRj_hasg.JPEG/Is6rPZxx5XXqyIr1x1GczhSippsc.jpg
67,사수항,33.50962856,126.4795267,3,https://dbscthumb-phinf.pstatic.net/2818_000_36/20211216205119627_WBLG8DF3D.jpg/2800129_image2_1.jpg?type=m4500_4500_fst
68,대포해안,33.23802162,126.4260597,3,http://post.phinf.naver.net/MjAyMDA5MjJfMjcw/MDAxNjAwNzY0NDk3ODI2.ZXJe6jhxppSfE2IouoMlIdokD83xv7d7sJW_vnBQ1IQg.PDDV4CeMejSmpi-7nRGMFbFclUhBERw3g6jfRhgHqqQg.JPEG/IioOBnG0xv40sPAo1xGKmG0g39Po.jpg
69,금능해수욕장,33.38983796,126.2353396,3,https://steemitimages.com/0x0/https:/ipfs.busy.org/ipfs/QmdGhGVoZgKY5KVEyQcXoKWz268MfuUkEZyQwL7XsNLkBd
70,송악산,33.19945153,126.2907751,3,https://modo-phinf.pstatic.net/20220713_266/1657705927865mOPFo_JPEG/mosaD2kPHe.jpeg
71,형제섬,33.20801477,126.3092289,3,https://c1.staticflickr.com/5/4231/35624227785_bbdb3ea277_b.jpg
72,카멜리아힐,33.28989832,126.3682664,3,https://d2uja84sd90jmv.cloudfront.net/posts/nBVfAW1zuRBGhuDUmxXDZg/m.jpg
73,세천포구,33.26961374,126.6741708,3,http://tong.visitkorea.or.kr/cms/resource/33/2800533_image2_1.jpg
74,수월봉과 차귀해안,33.29412242,126.1630063,3,https://cdn.visitkorea.or.kr/img/call?cmd=VIEW&id=d6c66bfd-a3f8-4e32-9852-44a9c9ff6b56
75,삼양 나이롱책방,33.52487029,126.5895557,3,http://tong.visitkorea.or.kr/cms/resource/31/2794231_image2_1.jpg
76,강정포구,33.22716248,126.4750196,3,https://dbscthumb-phinf.pstatic.net/5701_000_4/20190614212149930_PSA7UP4LJ.jpg/ZG9jdTY5fDM0NzI0.jpg?type=m936&autoRotate=true
77,제주러브랜드,33.45210729,126.4883912,3,https://dbscthumb-phinf.pstatic.net/2765_000_227/20181224233656888_4Y748HLA5.jpg/704068.jpg?type=m4500_4500_fst
78,아부오름,33.4476124,126.7773495,3,http://post.phinf.naver.net/MjAxNzAzMTBfMTg0/MDAxNDg5MTA2MDc0Nzcx.6sdlZqRRYGq2q8Zao8uNCRXdR9QwG7NLvnbtNBV-Asog.fZh0LHxzJuXe3lCVbi0kBOQDZW_nQDYG_jl-bQV_wZIg.JPEG/I_cvEic37T525nWxaFPyXjJDYx5I.jpg
79,베릿네오름,33.24747885,126.4220099,3,http://post.phinf.naver.net/MjAxNzA5MTNfMzAg/MDAxNTA1MzAxODc4OTE0.CG3HjpNec9fNKLafiAUqYrAT1l0C2kYTzKUJIDylawsg.aX7QTCLEcl5-SccI4ow8gkcRBEIOHSPxUJxCNmHNykgg.JPEG/IxY4IMhmLTsSeUUscPjvyrJNaFCU.jpg
80,화순금모래 해변,33.24070043,126.3335149,3,https://dbscthumb-phinf.pstatic.net/2765_000_150/20181207044516520_9UROGR53I.jpg/451679.jpg?type=m4500_4500_fst
81,우도 산호해변(서빈백사),33.50268123,126.9437533,3,http://post.phinf.naver.net/MjAyMTEwMDhfMzIg/MDAxNjMzNjg0MjI5MDYz.zn_9pJpVblCyK3cOWwVk-I2UrdT6THOVJJQsbZrSsjgg.Ls7-A2Cfu2GIGsbDFDQXK11jCIYt3bgm9INrFMENVyQg.JPEG/IRKVzKVgb1-_JL_Rxhy31gnRfBtI.jpg
82,순례자의 교회,33.31983096,126.1805487,3,https://i.pinimg.com/736x/71/a0/29/71a029a27434ccd6a005fc4336d50919--jun.jpg
83,제주 우도 천진항 대합실,33.49283522,126.9515556,3,http://tong.visitkorea.or.kr/cms/resource/26/2799626_image2_1.JPG
84,산방굴사(제주),33.23725605,126.3133473,3,http://imgnews.naver.net/image/018/2018/03/25/0004063486_005_20180325093301399.jpg
85,엉덩물계곡,33.24325982,126.419013,3,https://dbscthumb-phinf.pstatic.net/2818_000_28/20200709153306353_C0IFGPBGA.jpg/2662739_image2_1.jpg?type=m4500_4500_fst
86,제주 하도리 철새도래지,33.52047007,126.8905991,3,http://imgnews.naver.net/image/001/2021/01/19/PYH2020112316150005600_P4_20210119113604483.jpg
87,용두암해수랜드,33.51585882,126.5045689,3,https://dbscthumb-phinf.pstatic.net/2818_000_1/20151211035834763_RRDMY4C7E.jpg/1950440_image2_1.jpg?type=m4500_4500_fst
88,제주대 벚꽃길,33.45794671,126.5624124,3,https://cdn.crowdpic.net/detail-thumb/thumb_d_06E027D1E088E114EFE686595229247B.jpg
89,제주별빛누리공원,33.44457575,126.5492472,3,http://post.phinf.naver.net/20160624_209/1466731204435BIVfd_JPEG/IavPeY4DfoR9Vms4Kso0d-HNS0t8.jpg
90,제주 서광다원,33.30593427,126.2941835,3,http://post.phinf.naver.net/MjAxOTA1MDhfMjc1/MDAxNTU3Mjg1MTIzODE1.8Fs03P_byP7LwpM_iwbifblVReebO9MCNzfIeXU_MBkg.ptgdvDx5yfh-lzHxDqDGvE1px_YIrNuMMW13oXfZe-Ug.JPEG/ILNM_II9zEoUDTRXL7b6Q9xuZoGU.jpg
91,제주 동백마을,33.32039538,126.745183,3,http://post.phinf.naver.net/MjAxODAxMDVfMjQg/MDAxNTE1MTMzMjgxODIw.c5e9MtBUYjNWmLwPOcSZOK4c97l7tGYGYcQ6sz16CXwg.w-uYWp47w9nwnI6v1tEyQaDIlouU1XIKnGi3iAMTz0Mg.JPEG/IZQMykuw2a-LkDBlc6eQVgt6Et-g.jpg
92,하귀애월해안도로,33.47108621,126.3424701,3,http://tong.visitkorea.or.kr/cms/resource/48/2800548_image2_1.jpg
93,용머리해안,33.2322594,126.3145223,3,https://img.theqoo.net/img/DNCEI.jpg
94,비체올린,33.34945605,126.2182392,3,http://post.phinf.naver.net/MjAxODA4MTNfMjEy/MDAxNTM0MTM4ODEzMTEx.YZpz-7e1RcVhYfglhRf2HKHxoCsN9R4uwKc-iQzhkmwg.JeDV1ii-rS6ab-e8OtezOat96bbiBrCL48uWCZ3v6Tog.JPEG/Ir27eXUY7XN_WTlnBC-LyFCuJ_lE.jpg
95,소천지,33.23959908,126.5921064,3,http://imgnews.naver.net/image/022/2022/07/09/20220709507611_20220709154402679.jpg
96,금능석물원,33.38549108,126.2267487,3,https://dbscthumb-phinf.pstatic.net/2765_000_161/20181211041953348_UVBK4VB4R.jpg/645564.jpg?type=m4500_4500_fst
97,용두암,33.51580339,126.511971,3,http://imgnews.naver.net/image/5041/2017/06/04/428290_399465_5014_20170604152107261.JPG
98,브릭캠퍼스 제주,33.45857597,126.4853024,3,https://cdn.011st.com/11dims/resize/600x600/quality/75/11src/pd/21/4/8/5/9/7/0/EDYRk/2563485970_B.jpg
99,1100고지습지,33.35767288,126.4630149,3,http://post.phinf.naver.net/MjAxODAyMDhfMTcy/MDAxNTE4MDU1NDg1MjY2.6wfQpQq2qlNmbL3nBdXTD1f6Bp3zyb-57hiSl66bZlgg.YCUhpFhAljlUpG74nqs8SDy9qxvfpWGmRR40SY3AmiEg.JPEG/IImp4OY7pxfUF2xXzi8MrGleaOYM.jpg
100,제주성지,33.5102931,126.5255811,3,http://post.phinf.naver.net/MjAyMDA5MjRfMjQ2/MDAxNjAwOTI4OTQ1MTIw.pCewfe4jySvzELWuP7cqeYidzTNnMZJ6HxC4ailDZVgg.IEMzghgJ6NIJ_UISR66KJ9UaRp0Md_LaBuJxAT9rZYEg.JPEG/IblLAZLWbPsKSjE8vWqpTgTtvUhE.jpg
101,한라산 성판악,33.3848946,126.6203951,3,http://post.phinf.naver.net/MjAyMTAzMTBfNjQg/MDAxNjE1Mzc3NTI0MTM0.sk5Lh-hh5zrswq3nB-ndnNlxAJ6nh65w_-jHxT_PZRog.5Ps2jlWszjZGP0846vCxDzr8aYeC84gB9K8oDFc0Xl4g.JPEG/IaTMik8S2YjecVQmeUIF34sVX5eQ.jpg
102,휴애리자연생활공원,33.30851715,126.6344317,3,http://post.phinf.naver.net/MjAxOTAxMDNfMTcg/MDAxNTQ2NDgwMjI5NTE3.-GCOMZZlM2qnw-7WyXKEuQHlzWfFNXUNkltnj1OlC8cg.R1puVc5jDP8FEpsOXUVtySrgfxURDYz2fPfZzwhMD6Qg.JPEG/Ikfo50HBUegVwPxR82s2hW07ayn4.jpg
103,고산일과해안도로 (일과리해안도로),33.27516355,126.1723198,3,http://tong.visitkorea.or.kr/cms/resource/57/2800657_image2_1.jpg
104,제주도예촌,33.26465181,126.2357229,3,http://imgnews.naver.net/image/5544/2019/04/12/0000203433_001_20190412140847484.jpg
105,제주항,33.52006994,126.5342384,3,http://imgnews.naver.net/image/5452/2022/07/20/0000109816_001_20220720152602179.jpg
106,제이엠그랑블루요트,33.23824404,126.4396058,3,http://post.phinf.naver.net/MjAyMTA3MDZfNDMg/MDAxNjI1NTA3Nzc5NzUy.9N2vcw_19ebmXJt1QZTOhtRrmP1qmhoC6Ve-qDPcj2Mg.DKams4GYOmWXZ3BWaHv3vio1sHh8z69_AYZos7SEY3Ug.JPEG/IMU3wuKtH7ujpInU1g5vbdI2BG0o.jpg
107,여미지식물원,33.25260594,126.4142854,3,http://post.phinf.naver.net/MjAyMjA2MDJfMTM0/MDAxNjU0MTczMjY2NDMy.2EVZStYe7TVuLzhHAYbGZ1euCiK9uOJuR8hsCNdcEOcg.uD2W0ujI7FSFMDc-1yNLwCAYaSI3voojacBq13Wf9cAg.JPEG/I1QbB6-xhe5PRu_DLGT8o00BmCk0.jpg
108,수월봉,33.29478901,126.1634201,3,http://imgnews.naver.net/image/022/2021/04/18/20210417506173_20210418100214654.jpg
109,교래자연휴양림,33.45139616,126.6567238,3,http://post.phinf.naver.net/MjAxODEwMjhfMzkg/MDAxNTQwNzIzODc4Nzkx.m7P7ME2ZnnFZuVi1YQqZ8Fu-3WrtY-BnibTHwdB13hAg.OK3x71TdPrUbhM3kGQEU51cHkkJlHZZ0-vGGkX603TQg.JPEG/I0wUDnr8IH7VkWMpOjQRecXix3g4.jpg
110,우도 밤수지맨드라미책방,33.52075986,126.9484969,3,http://post.phinf.naver.net/MjAxOTA3MzBfMTI4/MDAxNTY0NDUyMzE5MTMy.BOdkrx2Sz58R3Z0RxV0ONL8CpcZtBKUMO0BKqJCbGZgg.g-KiLfFLxctErAyQPlLH0KN4UKjp9J10zEs7Dv1Bn8Ug.PNG/IHBa9ENO_LnxctOV_9QH0ZVVs4hQ.jpg
111,운진항,33.2097721,126.2576111,3,http://post.phinf.naver.net/MjAxOTA1MjJfNTAg/MDAxNTU4NTA1ODYwNjI4.FyQqv5Vf9Ki3mc_q4vLojduaBGAE5YNXBp31XZxJrI8g.-ePl13G2tZH_XB0QLpYH7u5P7O2kVPIFIrIxhG4ZUGog.JPEG/IKsqnII3Vgf5S2aL0BuPuww7i-mo.jpg
112,신양 섭지해수욕장,33.43025009,126.9280674,3,http://imgnews.naver.net/image/5104/2020/07/05/0000251255_001_20200705175814050.jpg
113,조천함덕 해안도로,33.5428196,126.6705344,3,http://post.phinf.naver.net/MjAyMTA0MTNfNDAg/MDAxNjE4Mjk0NDUwODYx.kIarS9-6IkF2C6Nd5dyBcP-U6Po5yxFfyIFlrfT7nqAg.ns-d-D-x9jCNYM2h0dmnn5gCfNhKMN27r-NreBydGLUg.JPEG/IJ2lvi85F7TF4aeBYmLRji5fOx7s.jpg
114,백제사,33.44881497,126.4243079,3,https://image.yes24.com/goods/106528989/XL
115,산방산유람선,33.23706752,126.3352176,3,http://shop1.phinf.naver.net/20210718_28/1626602105133iUi3R_JPEG/27737888846727141_1072155157.jpg
116,도두항,33.5061676,126.4650003,3,https://modo-phinf.pstatic.net/20220703_122/16568221083885I6VH_JPEG/mosahBzF9G.jpeg
117,우도마을,33.51188333,126.964854,3,http://photovil.hani.co.kr/files/attach/images/81/012/169/IMG_1395.jpg
118,광치기해변,33.4523087,126.9239478,3,https://dbscthumb-phinf.pstatic.net/5701_000_24/20200225130750448_9831PVKLS.jpg/ZW5pY2VwaG90b3wz.jpg?type=m936&autoRotate=true
119,서건도,33.25402924,126.4927119,3,https://storage.doopedia.co.kr/upload/_upload/image5/travel/editor/2022/06/06/20220606130640508_thumb.jpg
120,제주마방목지,33.42762016,126.6037011,3,http://post.phinf.naver.net/MjAxOTA5MjdfMjcg/MDAxNTY5NTQ0NDA0ODA4.NCfL74uTtN7ZZmMtwBAmdg3oAMw0Jv72K6lL84mrIvYg.9lm17CLb3lHQztaxSXoI4i5JI-4COU5NIw8TXkah4o4g.JPEG/I_vFI6MSzg8nBGAHHyGcOuKgbIGk.jpg
121,제주드림타워복합리조트,33.48529239,126.4814716,3,http://post.phinf.naver.net/MjAxNzEwMjRfMTk0/MDAxNTA4ODMwMTI5MDE3.P5RVYchasRjkfE6jQq6fYgTEXKG1_OwTsRqQdKLzmfog.pfJBnrlvAlEnH281VIXHsRg6ruFsC8yOefLMOsrBMFcg.JPEG/ITouh0KKUWcdXoqZGEJxMAaRlv6I.jpg
122,논짓물,33.2369517,126.3881241,3,http://post.phinf.naver.net/MjAyMDA4MDVfODIg/MDAxNTk2NTk1OTk2MzM1.E7Lo44Bhm3zoj_tqbRWhNlfgo0EK1lPx3UG0qsSSoFMg.3qQV8ygEZZK2FWuLLchj0qTZJYk4XCkoL4RWk7dpHcMg.JPEG/I0XQiP6XxKEdNi7qU38cgVY_vIms.jpg
123,제주신흥해수욕장,33.55197935,126.6485444,3,http://tong.visitkorea.or.kr/cms/resource/55/2800155_image2_1.jpg
124,글라스하우스,33.43025009,126.9280674,3,http://post.phinf.naver.net/MjAxODA3MjJfNzUg/MDAxNTMyMjQ2NzEzNzI3.KpBTCRolf30w_mfSLUaYsIgwfdUP0WO4zs6h34j58Sgg.zkPxkLhhydaBxUC1sHYo1gjiiGkPN_s_N0b_HoDoJqcg.JPEG/ITiYHBH8htkDn5CfT1iaL_degPBc.jpg
125,제주샘주 공장,33.44446963,126.33741,3,http://imgnews.naver.net/image/5267/2019/05/22/363277_259723_0643_20190522145816670.jpg
126,종달리수국길,33.50997428,126.9073118,3,http://post.phinf.naver.net/MjAxOTA2MjBfOTAg/MDAxNTYwOTg3Mjk3NTk0.EDuMuqsJx85cPRLtRgAzjVn1ve0roOD21SKbc704f18g.Fk9bUKpaEOguhawIfUHmZg1xkTd_B84ie2XvicJRVS8g.JPEG/IjzTugQce3r1sF9oWCKHlBOKvp1A.jpg
127,세화해변,33.5244858,126.8605739,3,http://post.phinf.naver.net/20160812_142/1470968024406nOoxr_PNG/I9PnHA0GhlTmkiC_EWB1Hg2NTNKc.jpg
128,위미1리어촌체험마을,33.27103556,126.6587527,3,http://tong.visitkorea.or.kr/cms/resource/56/2517256_image2_1.jpg
129,알작지,33.49620443,126.4412415,3,http://post.phinf.naver.net/20160829_187/1472454692148prxvO_JPEG/IyD-vplES-6VylQq-_hgKO_f8ABo.jpg
130,사계해안,33.20952857,126.3145089,3,http://tong.visitkorea.or.kr/cms/resource/66/2800666_image2_1.jpg
131,거문오름 [세계자연유산],33.45691592,126.7147325,3,http://imgnews.naver.net/image/041/2007/12/05/lalla83200712051338222.jpg
132,김녕오조해안도로,33.56402728,126.7759997,3,http://tong.visitkorea.or.kr/cms/resource/68/2799668_image2_1.jpg
133,종달리해변,33.51312935,126.8989125,3,http://post.phinf.naver.net/MjAyMTA2MDFfMjg1/MDAxNjIyNTI0ODYwNTgx.KXuwpFSgg-nbdZiyUHTS4G7ZaQbWjNPgRwcXGdoK-Wwg.QCJh-aUh7UJANrVnC3abzh1SK5rGteE0xe7pvtXcd2Ag.JPEG/InjDDxbjXH12UzyJp1Y4X7kyH8PY.jpg
134,비자림,33.48625306,126.8074905,3,https://storage.doopedia.co.kr/upload/_upload/image5/travel/editor/2022/02/14/20220214135622211.jpg
135,대평포구,33.23651523,126.3620209,3,http://tong.visitkorea.or.kr/cms/resource/66/2796966_image2_1.jpg
136,제주목관아,33.51370378,126.5220646,3,https://storage.doopedia.co.kr/upload/_upload/image5/travel/editor/2022/02/21/20220221140708286_thumb.jpg
137,퍼시픽 리솜,33.24501791,126.4156521,3,http://post.phinf.naver.net/MjAyMDA0MjFfMTYg/MDAxNTg3NDU2OTUyNTgx.RfRKTnXBacqRw4rxPCtWrTYyh2X0msaraMyuW0fojEkg.zlonvHLwArfCCRXCD6gcmqIt9sUlBt6-zKZwcwSOGAQg.JPEG/IbwiZ_Fu2gpuKXF2RTgnGAu2UGSk.jpg
138,상효원수목원/상효원,33.30724429,126.5860193,3,https://ldb-phinf.pstatic.net/20220801_2/1659320066605fvGKp_JPEG/%C6%AB%B8%B3_banner2.jpg
139,천지연 걸매생태공원,33.24996401,126.5551177,3,http://tong.visitkorea.or.kr/cms/resource/69/2549069_image2_1.jpg
140,제주다원 녹차미로공원,33.2971261,126.4188396,3,http://post.phinf.naver.net/MjAxNzAzMTZfNzEg/MDAxNDg5NjUwNjc2NzQ4.ni77C1tS_fPcb7ggfzob8agVKksMYnBh7Yln4wwguywg.ctk5hBVtmRnlQAn_oSCC5SI70NjsgtNMNBHTux3nDAQg.JPEG/IGBxciIzhL1bwWA9BFqv9Wy8A084.jpg
141,김녕성세기해변 (김녕해수욕장),33.55667783,126.7596485,3,http://post.phinf.naver.net/MjAxNzA1MTJfMTM1/MDAxNDk0NTc2Mjk1NTE5.eQKb_vqP8MK3y4J-bvHvPJneXTGHAikHsbxkdl1KYrog.0LvBwbRmmf6KO6Mm-Gi9i9DLXZduDpdgayaaWpQ8sUIg.JPEG/IGdVH1gK_9f_i0c9s-mkRXgX2DpM.jpg
142,낭만농장 귤밭76번지,33.28308791,126.3651584,3,http://post.phinf.naver.net/MjAxOTEyMzBfMjUx/MDAxNTc3NjY5MTY3Njg2.qIT-aXidf8mGwRTA4Ncek2L_66Rh2uI90PBMQDB-aM8g.YEhqrvdLOmZ_Vo2rSpZsZiTw9d1VxJUhslKaYYaZe2Ug.JPEG/IdkSN6QHHG_8OPnj0165wqNdrhv8.jpg
143,협재해변,33.39377648,126.2394419,3,http://cfile226.uf.daum.net/image/2702D34857A965ED1DA2CB
144,돈내코(원앙폭포),33.30052553,126.582017,3,http://post.phinf.naver.net/MjAxOTEwMjFfMjQg/MDAxNTcxNjUwMjg0MzEx.m7iP1rV_1Ta3jNCcBf6jTj9njUtO3RWmW64ea_wFUyAg.sWrDT2OqQ7zTDWhYZsaX-QdRnhmiRlAp3QMtKj0UNlkg.JPEG/ImoH1f0PxsjpHtJeByh_zvT-b36Q.jpg
145,방사탑(제주),33.54819924,126.6507304,3,http://imgnews.naver.net/image/5085/2010/04/01/78056_84967_2041.jpg
146,천왕사(제주),33.40774008,126.4950471,3,http://imgnews.naver.net/image/421/2020/11/09/0004978881_001_20201109141804577.jpg
147,아홉굿마을,33.32784746,126.2264223,3,http://imgnews.naver.net/image/5186/2016/10/25/78561_71004_459_99_20161025084608.png
148,노을해안로,33.25637443,126.202762,3,http://imgnews.naver.net/image/018/2016/08/19/PS16081900040g_99_20160819061605.jpg
149,제주선인장마을,33.37520038,126.2156555,3,http://post.phinf.naver.net/MjAyMDAxMTBfMTE5/MDAxNTc4NjE1ODk1OTgx.R2lJ_L4u0TPH87Y6W8trZOczTtWc_JOHif_gqTURidYg.Nu-tQuEQ6Lk4mxLZWvbqRKz3SOsZwgDzbPCGFfFFEcsg.JPEG/IzPHmaBSDcSdjGtmQcAhTSP-SVZo.jpg
150,제주 노루생태관찰원,33.44445478,126.626621,3,http://imgnews.naver.net/image/5085/2010/06/09/82729_90695_4857.jpg
151,서귀포잠수함,33.23922914,126.5587093,3,http://img.modetour.com/eagle/photoimg/17839/bfile/636047764092044052.jpg
152,금룡사(제주),33.55397248,126.7536019,3,http://imgnews.naver.net/image/5019/2018/09/15/0000218827_001_20180915213903106.jpg
153,따라비 오름,33.38594378,126.750331,3,https://storage.doopedia.co.kr/upload/_upload/image5/travel/editor/2022/02/21/20220221205312456_thumb.jpg
154,종달항 (두문포항),33.49658137,126.9106757,3,http://tong.visitkorea.or.kr/cms/resource/77/2799777_image2_1.jpg
155,정방폭포,33.24503982,126.5716053,3,http://imgnews.naver.net/image/003/2019/07/29/NISI20190729_0000370632_web_20190729170113_20190729170205347.jpg
156,해맞이해안로,33.5504227,126.7427252,3,http://post.phinf.naver.net/MjAyMTAxMDNfMjAy/MDAxNjA5NjI5MTY3NzUx.EBiSo3fTme_Lym3xNuZcmkuJBmod67t7uzJTxyuM5HEg.mwjM9BhhVtQCAPUeuIXAk9AZbk6vpDbmGaFXwlShKBQg.JPEG/IQVajoJdSD1_bhRBVeBPhmUZJbVA.jpg
157,송당 제주살롱,33.47104323,126.782593,3,http://tong.visitkorea.or.kr/cms/resource/72/2794172_image2_1.jpg
158,선흘 동백동산/곶자왈 (제주도 국가지질공원),33.51045451,126.7188282,3,http://tong.visitkorea.or.kr/cms/resource/80/2585080_image2_1.jpg
159,제주 성산항,33.47254822,126.9299218,3,http://img.ezmember.co.kr/cache/board/2014/12/25/6669b527a91f7b63c60581e900fb6190.jpg
160,어멍아방잔치마을,33.36192011,126.8405571,3,http://post.phinf.naver.net/MjAxNzEyMDRfNDMg/MDAxNTEyMzg3NTI1MjY2.1b9tVrmeVKQjCteL7ocL5vkzgt4R-HdZW7VGl2fCht0g.oPhiueFVZUHn0WafaDhI4f4TfAzV7DQoCmyL5gqci_cg.JPEG/IFeVtju64x2cCNMArTBe5B7LNBlQ.jpg
161,섭지코지,33.43025009,126.9280674,3,https://storage.doopedia.co.kr/upload/_upload/image5/travel/editor/2022/05/24/20220524201935407_thumb.jpg
162,사계해변,33.2255349,126.2993238,3,http://post.phinf.naver.net/MjAyMjAyMjdfMjY5/MDAxNjQ1OTczNjQzMDc5._IpQspcxvSceqTpO3wbMCxRcfOP1hvLMzRYkUOe9-Rsg.awkXO2zhCMVqATiw9mZJ77Gc73fhH8p4ee3UIetseZwg.JPEG/Ic9RhTN9e8p0Z-5JoeXZhyxwhJYQ.jpg
163,서귀포유람선 뉴파라다이스호,33.23919303,126.5584621,3,http://post.phinf.naver.net/MjAxOTA0MDRfNjQg/MDAxNTU0MzQxMDc0Mjky.OHW0MR8cCX1vjjUjFMVf0scdYwRkuzQ0dARRNl7ACsgg.EiF6REpd9aFdnt9msEyqAgf-06IBxMEQWOmXCadmmugg.JPEG/IjObvjuYqsyqIbOBCjxQZbqqshnE.jpg
164,전농로,33.50459638,126.5171791,3,http://imgnews.naver.net/image/5104/2016/04/03/1985166_116326_021_99_20160403174620.jpg
165,서귀포항,33.2391598,126.5648727,3,https://dbscthumb-phinf.pstatic.net/2765_000_45/20181009231823887_URIQYWNSA.jpg/1046288.jpg?type=m4500_4500_fst
166,왕이메오름,33.34100945,126.3751813,3,https://modo-phinf.pstatic.net/20220304_10/1646393157503JMJBA_JPEG/mosa8vOV9U.jpeg
167,포레스트사파리,33.46309294,126.7095828,3,https://ldb-phinf.pstatic.net/20181122_198/1542850051308WIBkw_JPEG/forestsafari_banner02.jpg
168,탑동광장,33.51818945,126.5251198,3,https://dbscthumb-phinf.pstatic.net/2765_000_227/20181224210341924_NFEG5VZID.jpg/456489.jpg?type=m4500_4500_fst
169,산방산(제주),33.23626724,126.3115002,3,http://imgnews.naver.net/image/5803/2021/03/22/202103224856144_20210322010527575.jpg
170,성이시돌목장 테쉬폰,33.34762742,126.3280769,3,http://post.phinf.naver.net/20161020_29/1476924273440p2S37_JPEG/IULG1o8kfw99Mb1mVA7t-JxJZHpM.jpg
171,우도 등대,33.49208555,126.9665932,3,http://post.phinf.naver.net/MjAxOTAyMTVfMjI5/MDAxNTUwMjI1MDY2NjYx.ojuXUtti7eEc0_fIYapjFRV5m64XjuUeA7YAmk2iWB0g.HdmJ_2I-Y4RSPUJ2zStacCZHP-H6akolWaDZ7IK-tjIg.JPEG/IOYn2q9IdGXQ1FsmLPDtwpRLsp0Q.jpg
172,수목원테마파크(아이스뮤지엄),33.47068856,126.4879352,3,http://post.phinf.naver.net/MjAxNzA2MDdfMTk1/MDAxNDk2ODEyNjczNjUz.6XLHthOQ5PIKHpzDGMLnm_jLQ_0YpywhS2y368rRhhEg.q5CwDNutXdhFfUkktaaD78o6ZbuiR6TY0I9aFDmLOE4g.JPEG/IjTIoGdQILFH1L1V6_ESG_T9JXf0.jpg
173,세화 책다방,33.55710612,126.7939011,3,http://tong.visitkorea.or.kr/cms/resource/86/2794186_image2_1.jpg
174,곽지해수욕장 (곽지과물해변),33.44603005,126.3043962,3,http://tong.visitkorea.or.kr/cms/resource/70/599870_image2_1.jpg
175,모충사,33.51617335,126.5470457,3,https://dbscthumb-phinf.pstatic.net/2765_000_362/20200206065812359_DO0S2TOYF.jpg/10812891.jpg?type=m4500_4500_fst
176,성이시돌목장,33.35016878,126.3267464,3,http://post.phinf.naver.net/MjAyMjA3MTdfMjk5/MDAxNjU4MDQ1MjM0MzM0.KsNk1wWkGZJxgrMfl5rglKTHf_yrl_73dzeGJMftIaog.LdRBEkU8xLQk5nBspqTvhuTAXZi-GEZ4LMHD_hFnaIog.JPEG/Id9rreZUhRxO5Y4x6aHJAs2zIkoI.jpg
177,관음사(제주),33.42376153,126.5581441,3,http://imgnews.naver.net/image/5149/2012/11/27/122601_61404_043_59_20121127114827.JPG
178,사라봉공원,33.51806202,126.5460485,3,https://dbscthumb-phinf.pstatic.net/2765_000_132/20181204194101958_AEASMVRBS.jpg/440401.jpg?type=m4500_4500_fst
179,한라산소주 공장투어,33.40779741,126.2561568,3,https://post-phinf.pstatic.net/MjAxOTA5MDlfNzAg/MDAxNTY4MDI2MDU2NzM4.3SsPWI7iNCdy9y62U-aCVc_EHyKYpAU6bwHciEg_0EMg.v6wIwjoyzt9vEV0eAzffQD6ig1Fda897IkTmp_b_vo0g.JPEG/ItZ8lELlLq2A5WmrRDNMa_rfCw1w.jpg?type=m4500_4500_fst
180,제주조각공원(포레스트 판타지아),33.25410988,126.3223489,3,https://image.g9.co.kr/g/2165288834/n?ts=1626227888000
181,주상절리대(대포동지삿개),33.23800218,126.426118,3,http://korean.visitkorea.or.kr/cms/resource/91/1206891_image2_1.jpg
182,자구내포구,33.30939021,126.1651502,3,http://post.phinf.naver.net/MjAyMTAxMTdfMjQ4/MDAxNjEwODI4MTgxNTk2.U4Ke0A8Bbgy6-HnYs-xCbP4PQO15Ek1ELEJmBY3f6dwg.pS-QwlZ3KX8k65wrrkbRAHUnDq2ruWudFRsyRl-42f0g.JPEG/IHa6VuR8lnp8YjQZ__yFoXzxg16c.jpg
183,제주 유수암마을,33.44137934,126.4030877,3,http://imgnews.naver.net/image/5017/2015/12/20/20c98d8b_99_20151220212905.jpg
184,비양도,33.40811081,126.2274926,3,https://dbscthumb-phinf.pstatic.net/2765_000_43/20181008212736201_E3DXIJ4PS.jpg/419348.jpg?type=m4500_4500_fst
185,섯알오름,33.2042092,126.2815563,3,https://dbscthumb-phinf.pstatic.net/5701_000_26/20200406184922832_GR7DKJMQW.jpg/bWlwYXNlb2t8MzQ3.jpg?type=m936&autoRotate=true
186,신화테마파크,33.30651775,126.3076046,3,http://shop1.phinf.naver.net/20220420_61/1650443604147gs1lH_JPEG/51579438675089405_764274419.jpg
187,제주탐나라공화국,33.33451216,126.3256857,3,http://imgnews.naver.net/image/025/2019/05/23/0002909012_001_20190523071024000.jpg
188,인디고트리,33.26382486,126.634841,3,http://tong.visitkorea.or.kr/cms/resource/97/2776097_image2_1.jpg
189,구엄리돌염전,33.4789304,126.381211,3,http://post.phinf.naver.net/MjAyMjAxMjRfMjI4/MDAxNjQyOTg5OTg4NzUx.5O1fUbJ5hrvuDe_PlQHNZb0uldRj_5I8xZTadc_2qaog.83pPmj3P4AwJ4FXVLMeon6w_iYPX--BzCWW48OjWpD0g.PNG/ItmD6JcY7zZ4AS6lQHqtBstpVYpE.jpg
190,엉또폭포,33.26775561,126.4991777,3,http://imgnews.naver.net/image/5307/2015/03/18/1426663379302294_99_20150318162603.jpg
191,연화못(하가못),33.45474643,126.34752,3,http://tong.visitkorea.or.kr/cms/resource/00/2517300_image2_1.jpg
192,제주도 국가지질공원,33.45690203,126.7142576,3,http://imgnews.naver.net/image/298/2013/02/20/12334_59_20130220181601.jpg
193,천지연폭포 (제주도 국가지질공원),33.24453413,126.559473,3,http://imgnews.naver.net/image/079/2016/08/11/20160811100359141570_99_20160811100605.jpg
194,석부작박물관,33.25031923,126.5360194,3,http://post.phinf.naver.net/MjAyMTExMDRfMjU1/MDAxNjM1OTk0NDM5ODg5.9eN-Z1b3E030g-T_U5h84rnPiGG3hWdRmQoo9PxmDDAg.64Q6nvtlTX5gJmfRkT47qPJVta22AbIvlkybC9e8l7Ag.PNG/IWXOekHCm-kdB8m1bkGwLf7wnC6I.jpg
195,안성리수국길,33.269702,126.2837741,3,http://tong.visitkorea.or.kr/cms/resource/97/2799597_image2_1.jpg
196,한라산 백록담,33.3444755,126.5364394,3,http://post.phinf.naver.net/MjAyMDExMjdfODgg/MDAxNjA2NDQ4Mzg2NjMz.zRzzBnd1Bvorps4kMI1kDxi_31_CNW85WI9L_cRgKZYg.aUk6OZXimTbH1KKJ_6hoLVVwmwBQVbD5qOi2tQRgjRkg.JPEG/Ib6FgJM-W8w0n45PO95i4xDxf2sY.jpg
197,소정방폭포,33.24511768,126.577327,3,http://imgnews.naver.net/image/5104/2016/07/29/1993623_120870_1630_99_20160729091540.jpg
198,한라수목원,33.46976928,126.4921488,3,http://www.jeju.go.kr/media/ymh
199,중문관광단지,33.25489179,126.4136493,3,https://i.pinimg.com/736x/b4/88/8a/b4888a7d0d77aa8057d365af27475a1e.jpg
200,백약이오름,33.43723598,126.7901986,3,http://post.phinf.naver.net/MjAxOTA5MTNfMjY3/MDAxNTY4MzYzMjcyNzg4.iVXjXtZwYx6CGOuKo_jasi62eYG4L0pCT-6fUmemJtwg.gqTxn67f89cSEblPYHY6WgLdzHXXo5_UTS4YmWecn4Yg.JPEG/IkYc0VzwAnC8QFXE3mvpDwkJ9dNE.jpg
201,충렬사,35.19906869,129.0966207,2,https://dbscthumb-phinf.pstatic.net/3764_000_4/20150718091423660_CQ6AGM1CL.jpg/GC042P21740.jpg?type=m4500_4500_fst_nce
202,광복로문화패션거리,35.09910368,129.0312902,2,http://tong.visitkorea.or.kr/cms/resource/64/200164_image2_1.jpg
203,남도해양관광열차 S-트레인(S-train),35.11527152,129.0424332,2,http://imgnews.naver.net/image/014/2016/03/17/201603171753397751_l_99_20160317175705.jpg
204,은진사,35.33604835,129.2765262,2,http://tong.visitkorea.or.kr/cms/resource/02/2759002_image2_1.jpg
205,해리단길,35.16487921,129.1576302,2,http://imgnews.naver.net/image/082/2022/08/03/0001168096_002_20220803183801462.jpg
206,유치환 우체통 전망대,35.12211227,129.033831,2,http://imgnews.naver.net/image/5415/2017/08/07/0000047670_002_20170807190207094.jpg
207,천성항 방파제등대,35.02821876,128.8148915,2,http://imgnews.naver.net/image/5364/2020/03/08/0000375363_001_20200308144705183.jpg
208,미포,35.15890512,129.1706181,2,http://post.phinf.naver.net/MjAxNzA2MDVfMSAg/MDAxNDk2NjM4MjAwNDAx.fY-L9xd_S3ftkjUz0pGJ-dN7z-SiHjRNfgVgePAnJksg.8HKnWU6GancsHdgcuwSEVW1TxqBfafZwAZVXJSYdGdAg.JPEG/IECPXBTztsaZSmHXRFMJZl5Uqboo.jpg
209,삼익비치수변공원,35.14622773,129.1152455,2,https://dbscthumb-phinf.pstatic.net/2818_000_37/20211217225734289_40MYKAXVZ.jpg/2800304_image2_1.jpg?type=m4500_4500_fst
210,허심청,35.22113541,129.0826824,2,http://post.phinf.naver.net/MjAyMjAyMTBfMTg3/MDAxNjQ0NDg0MjU4ODU2._Gn1W9tdtWmZx0JHLEtD-EmVranHJPy0SsUVpV-LHVIg.-obicLmdv5W-p3MT4_ijOUIE4ZKuN2mPVez0T-BHEw4g.JPEG/Iny9Olu5DXNSTIw6ihqTXe0Qjo8c.jpg
211,영도 하늘전망대,35.07196271,129.0548556,2,https://live.staticflickr.com/4751/39576574142_09b8332b46_b.jpg
212,장안사계곡,35.3744349,129.2328151,2,https://dbscthumb-phinf.pstatic.net/2765_000_172/20181218023724021_GTSRDLLSL.jpg/1597495.jpg?type=m4500_4500_fst
213,대항선착장,35.01232908,128.8259993,2,http://tong.visitkorea.or.kr/cms/resource/06/2800406_image2_1.jpg
214,광안리 SUP Zone,35.14773867,129.1146733,2,http://imgnews.naver.net/image/5515/2021/03/03/0000095190_001_20210303134626229.jpg
215,관음사,35.10910432,128.9758059,2,https://dbscthumb-phinf.pstatic.net/2765_000_22/20180916211032199_TLTXMJYPJ.jpg/494997.jpg?type=m4500_4500_fst
216,감천동편부두 / 감천항,35.05479719,129.0128152,2,http://tong.visitkorea.or.kr/cms/resource/10/2798110_image2_1.JPG
217,영주하늘눈전망대,35.11461027,129.0307259,2,http://imgnews.naver.net/image/016/2022/06/02/20220602000419_0_20220602105003693.jpg
218,이중섭거리,35.14033556,129.0521956,2,https://storage.doopedia.co.kr/upload/_upload/image5/travel/editor/2022/03/23/20220323192941923_thumb.jpg
219,구상반려암 (부산 국가지질공원),35.16311949,129.0721766,2,http://imgnews.naver.net/image/001/2013/12/10/PYH2013081408890005100_P2_59_20131210124003.jpg
220,장림포구,35.07936276,128.9513755,2,http://post.phinf.naver.net/MjAyMjAzMDdfMTk1/MDAxNjQ2NjI5MjY2MjEy.oMwngZWtxtKWhhsXmVK2FzLAcrzpt1UarWYGfkOtH2Ug.YoFRDOQ0KQrIpdGU0QMr2I1Ab_L6tIE8U1xPndlZfoog.JPEG/IqKNmf3Tp_jbzAjXAuq7SsBLQMB8.jpg
221,재한유엔기념공원 (UN기념공원),35.1277711,129.0953116,2,http://tong.visitkorea.or.kr/cms/resource/09/2668609_image2_1.jpg
222,구덕문화공원,35.12645293,129.0057695,2,https://dbscthumb-phinf.pstatic.net/2765_000_293/20190107024940963_QTL8OT4WD.jpg/1481639.jpg?type=m4500_4500_fst
223,금강사(부산),35.22500987,129.0771855,2,https://dbscthumb-phinf.pstatic.net/3764_000_4/20150718091907277_6GLJ1IJXT.jpg/GC042P21795.jpg?type=m4500_4500_fst_nce
224,청사포,35.16044424,129.192219,2,https://image.canon-ci.co.kr/resize2000X2000/pds/gallery/1629615216702_LFQ9ucUXeB.jpg
225,재난안전체험관,35.29182234,129.105109,2,http://imgnews.naver.net/image/5154/2016/11/01/670899_177300_0236_99_20161101223628.jpg
226,천마산하늘전망대,35.09364848,129.0173416,2,https://dbscthumb-phinf.pstatic.net/2818_000_31/20210616170331615_6TU1DSCXL.jpg/2720812_image2_1.jpg?type=m4500_4500_fst
227,청학 수변공원,35.09772939,129.0611626,2,https://www.popco.net/zboard/data2/dica_forum_sony/2021/03/15/1004968462604f0ec66866a.jpg
228,낙동강하구 (부산 국가지질공원),35.10455151,128.9460086,2,http://imgnews.naver.net/image/001/2020/03/22/AKR20200320101600051_02_i_P4_20200322080207693.jpg
229,센텀 APEC나루공원,35.1679172,129.1273244,2,http://imgnews.naver.net/image/5535/2019/03/14/0000112512_001_20190314093415788.jpg
230,보광사(부산),35.14088263,129.0468822,2,http://imgnews.naver.net/image/5423/2019/06/11/0000014344_001_20190611073039373.jpg
231,민락수변공원,35.15718235,129.1308883,2,http://imgnews.naver.net/image/421/2018/07/31/0003512538_001_20180731204746881.jpg
232,부산 암남공원,35.06164924,129.0151037,2,http://file1.bobaedream.co.kr/bbs/freeb/2018/12/01/01/posc1543596715.jpg
233,두송반도 (부산 국가지질공원),35.05959616,128.9862008,2,https://i.pinimg.com/originals/bb/ee/b0/bbeeb0877c9e6e53942d909bab58583f.jpg
234,깡깡이 예술마을,35.0932044,129.0342207,2,https://cdn.visitkorea.or.kr/img/call?cmd=VIEW&id=be1b8fc8-4a56-4904-905e-06a0034ce1ae
235,해운대 관광특구,35.1584383,129.1598691,2,http://imgnews.naver.net/image/015/2021/06/28/0004569257_002_20210628154001948.jpg
236,화명생태공원,35.2310995,129.0039112,2,http://old.tranggle.com/99_data/02_Tracks/image/20180407165515Image02(tomato050909-20180407_165530).jpg
237,대천천,35.24379019,129.0278977,2,http://board.busan.com/file/bFiles/2009/07/23/imgFiles/12483433543791.jpg
238,오시리아 해안산책로,35.19748523,129.2294675,2,http://imgnews.naver.net/image/5172/2019/04/26/0000539869_001_20190426001433223.jpg
239,감지해변,35.06253361,129.0764901,2,https://dbscthumb-phinf.pstatic.net/2765_000_13/20180718181048282_N4U9UXYHE.jpg/76701.jpg?type=m4500_4500_fst
240,부산롯데월드,35.19606841,129.2129995,2,http://post.phinf.naver.net/MjAyMjA2MjVfMTM2/MDAxNjU2MTMwMTcxNDE0.WtXOSihpqaBZ9Rpah8vgf1xUV5WONMay0W8lomeKN2Yg.Og3OCOGw1GbyztI9AaJhCdlzQnhJUf-LoXqT439_oAcg.JPEG/IAB1dWeLyZQ4JeWyslSTjib9lN8U.jpg
241,일광해수욕장,35.25996997,129.2336848,2,https://dbscthumb-phinf.pstatic.net/2765_000_172/20181218182542315_MHSLAZEKR.jpg/1273309.jpg?type=m4500_4500_fst
242,절영해안산책로,35.08124753,129.0411871,2,https://dbscthumb-phinf.pstatic.net/2765_000_210/20181222143014873_X6G1UUO7X.jpg/356402.jpg?type=m4500_4500_fst
243,부산동명불원,35.119175,129.1040278,2,http://imgnews.naver.net/image/5423/2021/02/03/0000023102_001_20210203073143627.jpg
244,국립 달음산자연휴양림,35.30275594,129.1854434,2,http://post.phinf.naver.net/MjAxODA5MTJfNzAg/MDAxNTM2NzEyNDU3OTY2.9Q1n1NGk_mTlTSNzTSRJH25VepAPm_kmBirtXXppC3Eg.BCQ71j_SS-fgV_GQijuTvkv3jvtQncGu6p47dmb_8K0g.JPEG/I1-eVGuJFmXRYo8_O2LxUp5prR7M.jpg
245,영도 청학배수지 전망대,35.08839152,129.0600713,2,https://www.popco.net/zboard/data/dica_forum_samsung/2016/10/12/43048335657fd3e2617994.jpg
246,척판암(부산),35.37605124,129.2249379,2,https://dbscthumb-phinf.pstatic.net/3764_000_4/20150717202412546_XQCEQR0QQ.jpg/GC042P02446.jpg?type=m4500_4500_fst_nce
247,캐비네 드 쁘아쏭(미디어 갤러리),35.20020436,129.2289258,2,http://tong.visitkorea.or.kr/cms/resource/26/2733026_image2_1.jpg
248,맥도생태공원,35.15234909,128.954926,2,http://imgnews.naver.net/image/421/2022/03/28/0005993283_001_20220328111302434.jpg
249,마린시티,35.15603272,129.1436567,2,https://file1.bobaedream.co.kr/multi_image/national/2020/05/22/15/HAA5ec77452181b3.jpg
250,대신공원,35.12169252,129.0148105,2,http://post.phinf.naver.net/MjAyMTEyMDNfNjcg/MDAxNjM4NTAzMjU1MTM0.poswSXr2_hD5kN6aNDRGog8cXJ7AAhC4-TT7bzehobkg.uqt1guXUlMXnSeuFB1daCbzlXiIf17M6rVYbAuk8XOkg.JPEG/IOxj6pDevQ7Q-lqbsxaSZquEpSpg.jpg
251,마하사(부산),35.1639058,129.0876863,2,https://dbscthumb-phinf.pstatic.net/3764_000_4/20150717165938748_J1GMODBT5.jpg/GC042P00170.jpg?type=m4500_4500_fst_nce
252,송도반도 (부산 국가지질공원),35.06596551,129.0195116,2,https://dbscthumb-phinf.pstatic.net/2818_000_25/20190809163436680_ZNSR38U3I.bmp/2614717_image2_1.bmp?type=m4500_4500_fst
253,부산 차이나타운특구(상해문.상해거리),35.11343277,129.0385614,2,http://tong.visitkorea.or.kr/cms/resource/25/1571125_image2_1.jpg
254,월전포구(월전방파제),35.23832539,129.2451761,2,http://post.phinf.naver.net/MjAyMjAzMjJfOTQg/MDAxNjQ3OTMzODM3NTEx.WZ23-aLDi34kJFOICOvOmlIdoWrtdBM8C1pxpIdOuXog.rwq5l7hokmQ_7AmFZT7TjSzg7RikhgRWKad7yGpGJzUg.JPEG/IUo39NQ5_oRqmsLXx_FWi_R_akuc.jpg
255,화명수목원,35.25105354,129.0426767,2,http://timg.humoruniv.com/thumb_crop_resize.php?url=http://down.humoruniv.com/hwiparambbs/data/photo/a_wc54807001_8c406ffb72c005b1c5f816a83b6928dd72f2743b.jpg?SIZE=800x533
256,법륜사(부산),35.20378468,129.0882185,2,http://imgnews.naver.net/image/5149/2019/03/04/0000033655_002_20190304173609907.jpg
257,대항 어촌체험 휴양마을,35.01172084,128.8276908,2,https://ldb-phinf.pstatic.net/20210907_55/1630974922153ySzEB_JPEG/o4RCfwRxKwH-c-aShtgKHKLW.jpg
258,부산 송도해상케이블카,35.07668105,129.0234248,2,http://post.phinf.naver.net/MjAxODExMDVfMjg3/MDAxNTQxNDE4MjI5NTg1.Ui0kea3NdN3wtLSyHbCuQ-Efj88nWc_b3SaAn-EpVVog.9Y00gkwKA1wigUZryd5yvO5sIyD0-GFem_xEpysBhogg.JPEG/IuzLczkCgFmEifsRN-XcyXI0gJ7o.jpg
259,부산남항,35.09190182,129.0372454,2,http://imgnews.naver.net/image/001/2008/07/09/PYH2008070908030005100_P2.jpg
260,옥련선원,35.16137903,129.1266024,2,http://img1.daumcdn.net/kakaotv/KAKAOACCOUNT/566329001/thumb/20190920160543
261,부산 치유의 숲,35.26900869,129.1298103,2,http://imgnews.naver.net/image/5501/2020/08/26/0000007572_003_20200826100653208.png
262,송정역,35.18098098,129.2003621,2,https://dbscthumb-phinf.pstatic.net/2765_000_249/20181226043026083_VSH44SDVH.jpg/1242865.jpg?type=m4500_4500_fst
263,F1963,35.17678543,129.1155141,2,http://post.phinf.naver.net/MjAyMTEwMjFfNDEg/MDAxNjM0Nzc4NzM0ODE5.N0Hdw1LLhlEqILEKjk88h6K1jus1Q8Ycor1HqGdvzPYg.xQMgnXBAmrkBrFKYtQc6RB18Z2Ddw9Sj5Rty-YEWvXEg.JPEG/IVnDMy73YMOwTtk2wLdTmb7ZJtmM.jpg
264,부산 자갈치 양곱창 골목,35.0973677,129.0277461,2,http://post.phinf.naver.net/MjAxNzEwMTVfMjE3/MDAxNTA4MDc0NjY1NDIx.Wy8gfb8RgH9vAbEavIWQ3cuj4xofkBHMAcPIkNQF914g.vaUg4Ur_QYldRcY_24hLKCy1NYVR0wqLrj9YmUvHFGcg.JPEG/I20m3be-9LN8n_8OvrLZpBB5xlWw.jpg
265,용호별빛공원,35.13225717,129.1201732,2,http://imgnews.naver.net/image/003/2021/07/19/NISI20210719_0000790486_web_20210719131517_20210719132207752.jpg
266,동래온천길(온천천 산책코스),35.19162797,129.1024593,2,https://dbscthumb-phinf.pstatic.net/2818_000_43/20220601183933130_MTL3XGBHI.png/2822333_image2_1.png?type=m4500_4500_fst
267,168계단,35.11712952,129.0353644,2,https://storage.doopedia.co.kr/upload/_upload/image5/travel/editor/2020/12/19/20201219200413030.jpg
268,아홉산숲,35.28714077,129.1715589,2,http://post.phinf.naver.net/MjAyMTA0MjZfMTc4/MDAxNjE5NDI5Mzk0OTg0.UrpsyC928_JoVCicVKnEYQTMTY4O6Tp9JpHjcTdUjrYg.HsHVGdMkASWdi3oHr6KrU5bFbPbF3Hzx0rjF1HHlt0og.PNG/IFL9QttwkGmz_n5rmHH4tjA3eSck.jpg
269,장미원,35.23339658,129.0099162,2,https://t1.daumcdn.net/cafeattach/1Qg2Y/f895e25290c0e7cafec3d04924b9a88d07563d96
270,부산 영화의 전당,35.17079465,129.1270577,2,http://imgnews.naver.net/image/5613/2021/11/10/0000063159_001_20211110185003883.png
271,선암사(부산),35.1768588,129.0275329,2,http://imgnews.naver.net/image/082/2019/02/15/0000879154_001_20190215141050912.jpg
272,75광장,35.07062125,129.058222,2,http://c2down.cyworld.co.kr/download?fid=64223d7b5b7e71aa39af3d7c002fd62e&name=75%B1%A4%C0%E56.jpg
273,해운대 달맞이길,35.15771936,129.1825699,2,https://g-grafolio.pstatic.net/20200402_214/15858161668836xYoB_JPEG/IMG_3092.jpg?type=w896_4
274,해운대 그린레일웨이 (미포~송정 구간),35.1603383,129.1711291,2,http://imgnews.naver.net/image/5538/2021/10/12/0000024393_001_20211012112107775..jpg
275,우암동 도시 숲,35.12774291,129.0728164,2,https://www.wetrend.co.kr/data/file2/daily_board/2205/23/1653314037_557f203e6ee54b49d8a2a627c2a9fc9b.jpg
276,해운대수목원,35.23044085,129.132625,2,https://cdn.ppomppu.co.kr/zboard/data3/2022/0419/900w_20220419203038_QbafuOa0Mo.jpg
277,동래향교,35.20772027,129.0841215,2,https://dbscthumb-phinf.pstatic.net/3764_000_4/20150718085352803_LXXEPBM8I.jpg/GC042P21480.jpg?type=m4500_4500_fst_nce
278,기장해녀촌(연화리횟촌),35.21842174,129.2281143,2,http://tong.visitkorea.or.kr/cms/resource/42/2704342_image2_1.jpg
279,하리선착장,35.07041337,129.0815033,2,http://imgnews.naver.net/image/5155/2021/04/16/0000405139_002_20210416204636178.png
280,신세계 센텀시티,35.16878659,129.1297408,2,http://imgnews.naver.net/image/5778/2022/02/04/0000022881_001_20220204083203580.jpg
281,부산 부평 족발 골목,35.09921469,129.0264573,2,https://cdn.visitkorea.or.kr/img/call?cmd=VIEW&id=eed58e24-1b0c-4b01-ad21-da00d8fae63b
282,금수사(부산),35.12042071,129.0296787,2,http://tong.visitkorea.or.kr/cms/resource/45/2690245_image2_1.jpg
283,금련산,35.16022306,129.0974161,2,http://tong.visitkorea.or.kr/cms/resource/53/1156853_image2_1.jpg
284,금정산성,35.25878903,129.0559837,2,https://dbscthumb-phinf.pstatic.net/3764_000_4/20150717210159062_SPCK5AU6H.jpg/GC042P02874.jpg?type=m4500_4500_fst_nce
285,홍연폭포,35.29587026,129.1667036,2,http://tong.visitkorea.or.kr/cms/resource/44/2758644_image2_1.jpg
286,오륜대전망대,35.24839125,129.1131429,2,http://post.phinf.naver.net/MjAyMTA2MThfMTc4/MDAxNjI0MDAwMjExOTc4.Sn12msZ-X-079zHpSrtiagR78SyiojtMf2ixZ0SI0vsg.xMiJUfzDXpgYl_yOsTyHNAH4MRedZZBzXYNYn9W3HQ0g.PNG/ILt2MmJV_dY69xyiRHcCWNB3mf1w.jpg
287,소름요,35.24337476,129.2417735,2,https://extmovie.maxmovie.com/xe/files/attach/images/135/060/552/023/2dfa3eab01a3bfced7ae7c06370f7c71.jpg
288,부산 감천문화마을,35.0975007,129.0106254,2,https://img.theqoo.net/img/rjCZK.jpg
289,부산영화촬영스튜디오,35.162518,129.1380958,2,https://dbscthumb-phinf.pstatic.net/3764_000_4/20150718015643818_PRMX7ENXX.jpg/GC042P07756.jpg?type=m4500_4500_fst_nce
290,송상현광장,35.16518861,129.0669242,2,http://imgnews.naver.net/image/082/2014/07/10/20140709000213_0_99_20140711144115.jpg
291,홍법사(부산),35.30275178,129.1106444,2,http://imgnews.naver.net/image/5157/2021/12/05/0000049538_002_20211206085001521.jpg
292,흰여울문화마을,35.07727585,129.04637,2,http://post.phinf.naver.net/MjAyMjA3MTRfNDEg/MDAxNjU3Nzc2MDYwODE1.38PrK_lnwFPR7CxfgrMaf-1lOiWfpf2SbVosIgf3-IAg.1-_lAvPJCMdqe_bzfuFm7OQzX3igXryA4yHScOxffy8g.JPEG/I9LvEJ1FC6SNC_wrSCyn5dHyYrDM.jpg
293,태종대 전망대,35.05039907,129.0883893,2,https://cdn.visitkorea.or.kr/img/call?cmd=VIEW&id=8052982d-37b1-43ac-8e2d-3bb64809e17c
294,25의용단,35.17194983,129.1138921,2,http://www.doopedia.co.kr/_upload/image1/340000/348000/1024/348484.jpg
295,안데르센 동화마을,35.36011997,129.2399149,2,https://cdn.steemitimages.com/DQmNmBr7J97hnN4CK8rBWX3KXJ8hRVRjqjz67ziRsL8WYcp/393BE6FC-12FD-468D-AF54-AE4869A23158.jpeg
296,부산 가톨릭 특성화 거리,35.24405812,129.0976416,2,http://imgnews.naver.net/image/5098/2010/11/16/20101116052.jpg
297,낙동강 생태탐방선,35.11025093,128.9492082,2,http://imgnews.naver.net/image/020/2013/09/26/57833542.2_59_20130926030521.jpg
298,부산진성공원,35.13590845,129.0611255,2,https://dbscthumb-phinf.pstatic.net/2765_000_132/20181204073317881_GFFRU7WDM.jpg/570303.jpg?type=m4500_4500_fst
299,서면1번가,35.15357586,129.0582864,2,http://imgnews.naver.net/image/001/2020/12/01/PYH2020120120740005100_P4_20201201163536466.jpg
300,부산 올림픽동산,35.16446214,129.133174,2,http://imgnews.naver.net/image/001/2009/04/19/PYH2009041904940005100_P2.jpg
301,죽성항(황학대),35.24264716,129.2468481,2,http://tong.visitkorea.or.kr/cms/resource/55/2716555_image2_1.jpg
302,황령산 전망대,35.15793416,129.0827286,2,https://dbscthumb-phinf.pstatic.net/2818_000_32/20210813172526901_23S7Q2A0O.jpg/2732754_image2_1.jpg?type=m4500_4500_fst
303,부산 복천동 고분군,35.20687327,129.0906821,2,https://dbscthumb-phinf.pstatic.net/2765_000_30/20180920212556931_WIKK0K1K6.jpg/351391.jpg?type=m4500_4500_fst
304,오륙도 (부산 국가지질공원),35.09204235,129.1269487,2,http://imgnews.naver.net/image/003/2016/03/21/NISI20160321_0011491535_web_99_20160321212711.jpg
305,부산 칠드런스 뮤지엄,35.19205784,129.2177964,2,https://image-logo.alba.kr/%2Fdata_image2%2Fcomlogo%2F202204%2F2022040214001127654_0_m.jpg
306,아미산 전망대,35.0527909,128.9608087,2,https://www.popco.net/zboard/data2/compact_talk/2015/06/25/2055500468558bc47a90215.jpg
307,대연수목전시원,,,2,https://dbscthumb-phinf.pstatic.net/3764_000_4/20150718101810232_NY0XGP3BB.jpg/GC042P22518.jpg?type=m4500_4500_fst_nce
308,동백공원,35.15390811,129.1521171,2,http://imgnews.naver.net/image/469/2018/06/14/0000306888_011_20180615045307055.jpg
309,용두산공원,35.10048411,129.0326928,2,https://modo-phinf.pstatic.net/20180312_209/1520801577994fBNcv_JPEG/mosaNGVtVA.jpeg
310,역사의 디오라마,35.11468529,129.0322897,2,http://tong.visitkorea.or.kr/cms/resource/59/2731759_image2_1.jpg
311,오륙도 등대,35.09120355,129.1269154,2,http://imgnews.naver.net/image/001/2019/04/04/PCM20181105000119990_P2_20190404150310272.jpg
312,키자니아 부산,35.16990033,129.1283187,2,https://ldb-phinf.pstatic.net/20200306_168/1583474728705OoUxS_JPEG/J6tV-Xc8IkzXp3uZAGvbHzBX.jpg
313,미포항,35.15845517,129.170682,2,http://tong.visitkorea.or.kr/cms/resource/56/2787756_image2_1.jpg
314,곰내연밭,35.29540925,129.169545,2,http://tong.visitkorea.or.kr/cms/resource/62/2794162_image2_1.jpg
315,청량사(부산),35.11775787,128.9190856,2,http://imgnews.naver.net/image/5025/2014/11/09/20141109184350_104384_3_99_20141109202017.jpg
316,금정산성마을 먹거리촌,35.25138704,129.053823,2,https://cdn.visitkorea.or.kr/img/call?cmd=VIEW&id=6fd707b4-49cb-4a23-bf48-0dd7281ec5fe
317,옛백제병원,35.11636023,129.0392002,2,http://imgnews.naver.net/image/082/2021/04/15/0001083461_001_20210415184317031.jpg
318,가덕해양파크휴게소,35.02305813,128.809631,2,http://tong.visitkorea.or.kr/cms/resource/65/2793065_image2_1.jpg
319,수영사적공원,35.17069443,129.1145032,2,http://post.phinf.naver.net/MjAyMTA0MDZfMTQx/MDAxNjE3Njg0NjY2MTk2.LvHTS57loN5Z9r4lzbeOjlZzYJQX_-QWO1K-q0cwPYMg.tFbRal9REKkLVfpiwJ4dwWcpE-lWt9-yxefIPOvP1Kwg.JPEG/I5fBl1r8cZxw2kUCsri5Qc21yOxw.jpg
320,가덕도,35.02296383,128.8169442,2,http://post.phinf.naver.net/MjAyMTA5MDdfMTEy/MDAxNjMwOTgzMDU5MDA4.KqCoErHww4Ya1aDSSrU0O4Beft8-Pazw9SR8bPGvbq8g.E7AdHjBnYIkBU1C6ax_bXlyRADAMXBFTQkn15CcKig8g.PNG/IeB5BDXmbci2pIY8DbXiU0M6bdgQ.jpg
321,송정해수욕장,35.17871177,129.1996401,2,https://dbscthumb-phinf.pstatic.net/2765_000_49/20181011210132598_KS0D8GYUC.jpg/249075.jpg?type=m4500_4500_fst
322,캐니언파크 부산,35.14830436,129.0654692,2,http://tong.visitkorea.or.kr/cms/resource/86/2791586_image2_1.jpg
323,삼락생태공원,35.16914477,128.9732045,2,http://imgnews.naver.net/image/082/2021/10/04/0001121827_001_20211004194314859.jpg
324,더베이101,35.15668558,129.1521198,2,http://post.phinf.naver.net/20160824_149/1472027770951xKBUe_JPEG/IGVNhPNvqnjoc_tPW2fBNp7GPmsM.jpg
325,해운대 동백섬,35.15399144,129.152181,2,http://post.phinf.naver.net/MjAyMTAyMjdfMjQ3/MDAxNjE0Mzg5MzE2OTU5.4ipPDdiAZMFHNoKPoArBQrakUCa4PvM2PpW9oTsgf0gg.rw4A_5JtDDa91aECQvNtnQ7wC0OPAmhePeHyAKQZD6og.JPEG/IkOYQjsaeJYM-R0NKsSuZACbNglU.jpg
326,허브랑야생화,35.2542589,129.0518675,2,https://ldb-phinf.pstatic.net/20190419_50/1555646053803zP1oe_JPEG/l2XdOD2Y3dceznk2Sl4pEN9l.jpg
327,구포 어린이교통공원,35.20106946,128.9999568,2,http://tong.visitkorea.or.kr/cms/resource/66/2755666_image2_1.jpg
328,을숙도 공원,35.09379418,128.9353792,2,http://tong.visitkorea.or.kr/cms/resource/09/2719109_image2_1.jpg
329,장산 (부산 국가지질공원),35.18110537,129.1681899,2,http://imgnews.naver.net/image/005/2015/12/17/201512170404_14170923358676_2_99_20151217040509.jpg
330,안심치유정원,35.28982266,129.1101753,2,https://ldb-phinf.pstatic.net/20211014_14/163419767715297bjF_JPEG/KakaoTalk_20210521_163506820_17.jpg
331,해운대해수욕장,35.15912435,129.1603079,2,https://dbscthumb-phinf.pstatic.net/3764_000_4/20150719001801705_Q9KTVZF9I.jpg/GC042P54101.jpg?type=m4500_4500_fst_nce
332,가덕도대항인공동굴,35.01330955,128.8274686,2,http://tong.visitkorea.or.kr/cms/resource/81/2800381_image2_1.jpg
333,국청사(부산),35.25388956,129.0549922,2,http://imgnews.naver.net/image/5544/2019/04/12/0000203495_001_20190412142048046.jpg
334,팬스타부산주말원나잇크루즈,35.11776303,129.0491659,2,http://shop1.phinf.naver.net/20220731_131/1659261062618SsmiH_PNG/60396951285347251_539506043.png
335,승학산,35.11409272,128.9795998,2,http://resource.tranggle.com/board/content/istory/2019/07/20190708161821_@K1118688689_83dd0277ebb1025298c173b1a6b1a332.jpg
336,화전공원,35.10565571,128.8791616,2,http://tong.visitkorea.or.kr/cms/resource/62/2791362_image2_1.jpg
337,부산 에덴공원,35.10923463,128.9632292,2,http://imgnews.naver.net/image/082/2016/06/14/20160614000284_0_99_20160619182032.jpg
338,범어사(부산),35.28399754,129.0681264,2,https://dbscthumb-phinf.pstatic.net/3764_000_4/20150717175953772_Q9D4UP2RO.jpg/GC042P00836.jpg?type=m4500_4500_fst_nce
339,금정선원,35.22163519,129.0741053,2,http://imgnews.naver.net/image/082/2021/05/17/0001091413_001_20210517140902868.jpg
340,회동수원지,35.22525502,129.1166488,2,http://resource.tranggle.com/board/content/story/2020/10/20201011230946_sclsckr_fedfe48b65e3733de36eef37c2f1f8e1.jpg
341,부산엑스더스카이,35.16138257,129.1680433,2,http://post.phinf.naver.net/MjAyMjAxMjlfMjg1/MDAxNjQzNDM3Nzc0ODU1.b0EBXrd2xd7r-6zobaLCqilkoqgEOeMi5ZFtASFLSg4g.Aa5SpY1Alhw9dKpsUDum9BfS0dLOe-8tynWqMu9W2CIg.JPEG/IHvpKTWLweZbTnZqjtZPC2difqWI.jpg
342,금강공원,35.21901053,129.076233,2,https://dbscthumb-phinf.pstatic.net/4749_000_12/20170405203752604_OIJSG1CQD.jpg/1433441419053600.jpg?type=m4500_4500_fst
343,광안리해수욕장,35.15379084,129.1184922,2,https://dbscthumb-phinf.pstatic.net/3764_000_4/20150718094140790_TGCE5V6FV.jpg/GC042P22078.jpg?type=m4500_4500_fst_nce
344,황령산,35.15793416,129.0827286,2,https://www.popco.net/zboard/data/photo_gallery/2015/05/22/1965101839555e5342974b3.jpg
345,좌수영성지,35.17431064,129.1117117,2,https://dbscthumb-phinf.pstatic.net/1694_000_13/20130621123246068_MFXMO5C5J.jpg/z2_cp09051593000.jpg?type=m4500_4500_fst
346,40계단 문화관광테마거리,35.10406987,129.0354119,2,http://cfile231.uf.daum.net/image/214CCA39573941CE096448
347,외양포 포진지,35.00563814,128.8251996,2,http://tong.visitkorea.or.kr/cms/resource/73/1753973_image2_1.jpg
348,부산라벤더팜,35.25904626,129.1478285,2,https://ldb-phinf.pstatic.net/20200619_284/1592529344944CQm04_JPEG/Mixtqvtc318itYgka_mCndB_.JPG.jpg
349,소두방공원,35.32533112,129.1817598,2,http://tong.visitkorea.or.kr/cms/resource/81/2758981_image2_1.jpg
350,정란각/문화공감수정,35.12558704,129.0426663,2,http://post.phinf.naver.net/MjAyMTA4MDlfOSAg/MDAxNjI4NDc0Mjk0Mzk3.7tDR-WjH1zsAXBtRnl_u-kcUaCfGm8R2O6rbrZvCYnIg.TtaCo-F4BKqKW3m3QjeaENwOHKIe87g2rJ0S9H7ubxwg.JPEG/IYiu3orGFy1hkfEmkqnlK7qf8Ly4.jpg
351,김민부전망대,35.11771001,129.0352505,2,http://imgnews.naver.net/image/001/2013/02/13/PYH2013021312140005100_P2_59_20130213180301.jpg
352,해운대 블루라인파크,35.1612608,129.191394,2,http://post.phinf.naver.net/MjAyMjA2MDVfMTEz/MDAxNjU0NDIzNTk1NzEy.rfWcrri1JUa9haWLPfyVuSNqKlCmsFxcohSYwX2nN8wg.Aa1jvdQzK34dYrIPlbL6xLWZHmuuX4nFnoyQgA9l2AEg.JPEG/I8YHNVk_bg4v7BhoFgidh0GIN0y4.jpg
353,백양산 (부산 국가지질공원),35.18536923,129.0424174,2,http://imgnews.naver.net/image/005/2015/12/17/201512170404_14170923358676_2_99_20151217040509.jpg
354,부산어린이대공원,35.18725791,129.0426785,2,http://imgnews.naver.net/image/5515/2018/07/16/0000015990_001_20180716104132902.JPG
355,수미르공원,35.10200071,129.0381562,2,https://dbscthumb-phinf.pstatic.net/3764_000_4/20150718133604016_DSQ7EKI37.jpg/GC042P24905.jpg?type=m4500_4500_fst_nce
356,감천사(부산),35.1833037,129.0912632,2,https://dbscthumb-phinf.pstatic.net/3764_000_4/20150718010320309_MBMUUYSM0.jpg/GC042P06678.jpg?type=m4500_4500_fst_nce
357,BIFF 광장,35.09885089,129.0292126,2,http://cfile236.uf.daum.net/image/173F6C4E50EC394F30B4CB
358,충렬탑(부산 충렬사),35.20121289,129.0961401,2,http://koreaarttv.com/wys2/file_attach/2019/03/12/1552399400-29.jpg
359,부산광안대교,35.14499476,129.1270084,2,http://imgnews.naver.net/image/056/2019/07/01/0010717165_001_20190701081908907.jpg
360,죽성성당(드림세트장),35.24122234,129.2478869,2,https://live.staticflickr.com/4213/34575200293_3fba43b602_b.jpg
361,스포원파크,35.28916157,129.1070701,2,http://imgnews.naver.net/image/082/2009/05/07/20090506000158_0.jpg
362,부산 송도해수욕장,35.07392567,129.0164588,2,http://post.phinf.naver.net/MjAyMTA0MTZfMjUw/MDAxNjE4NTQ2NDgwMTMz.xfHCXUQsuot9yNJHMcNk5ieJbymtIiG-aQ2_U4WpHVkg.gJ_hDFKbBO4JS2rEBI-l1oMlg7zgLfYAnFHL4FJ8aNwg.JPEG/IXSImzwIiNot84qKFviEbDzklaBY.jpg
363,북맛골,35.23699196,129.0825597,2,https://live.staticflickr.com/2938/14795844486_8677510dc1_c.jpg
364,금정산성 막걸리,35.25042331,129.0564228,2,https://cdn.egn.kr/news/photo/202201/201642_302651_4051.jpg
365,부산 티파니21 크루즈 유람선,35.15689107,129.1500811,2,http://imgnews.naver.net/image/001/2012/02/26/PYH2012022602930005100_P2.jpg
366,델타루 (에코델타시티 전망대),35.13641139,128.922057,2,http://tong.visitkorea.or.kr/cms/resource/85/2791385_image2_1.JPG
367,광안리해변 테마거리,35.15516575,129.1221363,2,https://dbscthumb-phinf.pstatic.net/3764_000_4/20150718162941155_B1IUVK754.jpg/GC042P27117.jpg?type=m4500_4500_fst_nce
368,가덕도 등대,35.00064712,128.8295937,2,https://dbscthumb-phinf.pstatic.net/3764_000_4/20150717203552107_9317DUID8.jpg/GC042P02582.jpg?type=m4500_4500_fst_nce
369,삼광사,35.17593142,129.0434426,2,https://dbscthumb-phinf.pstatic.net/2765_000_210/20181222141848790_BBBNCS2BU.jpg/353329.jpg?type=m4500_4500_fst
370,영도 흰여울해안터널,35.07795908,129.0453201,2,http://tong.visitkorea.or.kr/cms/resource/21/2712621_image2_1.jpg
371,대항전망대,35.01715908,128.8251215,2,http://post.phinf.naver.net/MjAyMDAzMTdfMTg3/MDAxNTg0NDI2OTQyMDM5.t7eO_fnP00VolXe_ZzLJHB21l00xtIdOH_kCKn7dmq4g.Fo5oQkOQWXzSrc9xL1mtrbVn6VOIiPuxWVNhd0t_9l8g.JPEG/I_W0R3ILmGtkqlKA0EN6ll8To_B4.jpg
372,신평소공원,35.29271679,129.2600539,2,http://post.phinf.naver.net/MjAxNzA3MzFfMjcg/MDAxNTAxNDc5MzEzODYz.EU7-MLVSSBGYORSZEoiZN1l3Io7EfXlPMLwZ6ggasTkg.8b6pSJywnnrJARdySlVftNM8j2edKkZRTqkHNud0pMcg.JPEG/IPE2fbmk6MWLMcHDgoxCGT4Dun5A.jpg
373,다대포항,35.05241358,128.9832651,2,https://dbscthumb-phinf.pstatic.net/2765_000_384/20210930095420784_1JTR8IODH.jpg/8593420.jpg?type=m4500_4500_fst
374,부산대교,35.09601805,129.0385091,2,https://thumb2.gettyimageskorea.com/image_preview/700/201410/MBNK/MIXD14000827.jpg
375,중앙공원,35.11232714,129.0279957,2,http://post.phinf.naver.net/MjAyMTEwMDhfMjM3/MDAxNjMzNjcwNzY3OTE1.ibfev3ZCxY0mGKy8h_L0_949hWuT37lHCVNwkj71hTAg.rsAFCe4xuEu6WcfGv__OUYy1Gumjg2lcgBiVULsGI6Ug.JPEG/IiS9z5jovg-4YdqQ1v01RepxmJt4.jpg
376,호천마을,35.14428233,129.0512428,2,https://cdn.visitkorea.or.kr/img/call?cmd=VIEW&id=e703c736-1fee-4238-a0f8-e3a3407dc953
377,해운대온천센터,35.16344061,129.1645769,2,https://dbscthumb-phinf.pstatic.net/3764_000_4/20150718165634559_696SMHD3N.jpg/GC042P27477.jpg?type=m4500_4500_fst_nce
378,몰운대 (부산 국가지질공원),35.04028136,128.9699333,2,http://imgnews.naver.net/image/005/2015/12/17/201512170404_14170923358676_2_99_20151217040509.jpg
379,국제크루즈터미널,35.08080106,129.0791838,2,http://imgnews.naver.net/image/001/2016/06/01/AKR20160601165700051_02_i_99_20160601172608.jpg
380,송도마을,35.0679652,129.0151036,2,http://post.phinf.naver.net/MjAyMDA5MThfMTU2/MDAxNjAwNDExMzU0NDU0.BY7fyaNN9cC4SqKYxOyGuMpkLcCCeNLv6hXiwHmmRR0g.bNd2Vyja0GcasjFAwjpmLg_x-9JjyNWUbMzO1qCe1UUg.JPEG/I2qaaiIFbiPsjaX6WOgW0LexhnUQ.jpg
381,초량 이바구길,35.11657126,129.0362643,2,http://post.phinf.naver.net/MjAyMDA4MTVfMTU2/MDAxNTk3NDI4OTE0MjQ5.RY1RLfgsNwtuAKS-vYVqmAXLQMrTISo2oV6WOby5YS8g.CuuL3X97Isd26z30XCucsbDG-mI0lvjknX7KUIWJLo0g.JPEG/IfgxEmQCuwPKRG_mPy9rNBigRrLM.jpg
382,사상근린공원,35.15219951,128.976874,2,http://post.phinf.naver.net/MjAyMTEwMThfNzEg/MDAxNjM0NTQ2MzIwMzI1.0XvfhjaFQbrU0erA41cwCbfVH9-5lRy1FFhtEJU8WOIg.HE82GwCG0kvKLwXGyHlmzagmsy2FHTRLUS8knuiF3tQg.JPEG/IgsExYHMV-JLR8ZM-lkqC_7sWN-k.jpg
383,낙동강하구에코센터,35.10442929,128.9458947,2,https://dbscthumb-phinf.pstatic.net/2765_000_293/20190107024949683_PT9A9DXQI.jpg/1481673.jpg?type=m4500_4500_fst
384,영주암(부산),35.17665458,129.0986683,2,http://imgnews.naver.net/image/5019/2017/06/26/0000180261_002_20170626150605337.jpg
385,땅뫼산,35.24727479,129.1174425,2,http://imgnews.naver.net/image/382/2020/11/02/0000867317_002_20201102095115124.jpg
386,남선창고터,35.1167963,129.0395112,2,http://imgnews.naver.net/image/001/2019/10/16/C0A8CA3D0000014C82281BA600001FE1_P2_20191016162031057.jpeg
387,미륵사(부산),35.27400663,129.0489255,2,http://cfile237.uf.daum.net/image/99FD254D5AC228F61E8484
388,부산민주공원,35.10972466,129.0280541,2,http://post.phinf.naver.net/MjAyMjA1MjVfMjQ2/MDAxNjUzNDA2NTMyMzQ4.OOVU-WB8NSUMfpgYue0VLRnt8BwwvmRdpAFwu-rmI_Ag.oacb2NWd0Rzque-BqUcrcNkV8V4SumCfIvfN5HAARD8g.PNG/ItgzomhzBq7ShQQQov93SdOG35JM.jpg
389,월전장어구이촌,35.2381615,129.2441707,2,http://tong.visitkorea.or.kr/cms/resource/03/2795803_image2_1.jpg
390,만덕고개 누리길 전망데크,35.21428015,129.0573042,2,https://cdn.visitkorea.or.kr/img/call?cmd=VIEW&id=352b5b0d-6674-49dc-b597-167e44fe24c4
391,조방해수탕,35.14185225,129.0625724,2,https://ldb-phinf.pstatic.net/20201213_212/1607867731343E361A_JPEG/2NdljbS-G7IWm7PcfCzZVx_K.jpg
392,임랑해수욕장,35.31601422,129.2620864,2,https://file1.bobaedream.co.kr/bbs/freeb/2021/07/20/11/bool1626750250_1103985125.jpg
393,약수암(부산),35.17822751,128.9965272,2,http://imgnews.naver.net/image/5156/2019/02/15/0000032305_001_20190215180444514.jpg
394,청사포 다릿돌전망대,35.1633523,129.1954075,2,http://imgnews.naver.net/image/082/2017/08/16/0000731571_004_20170817102825430.jpg
395,산복도로,35.1092331,129.0309233,2,http://imgnews.naver.net/image/082/2009/02/19/12349608782061.jpg
396,부산시민공원,35.16549392,129.0558807,2,https://i.pinimg.com/736x/d6/f3/02/d6f30267dfdd3aca0e880dd98ef26c33.jpg
397,해운대리버크루즈,35.1679172,129.1273244,2,https://ldb-phinf.pstatic.net/20220721_195/1658392870035VS75X_JPEG/ezgif.com-gif-maker8.jpg
398,낙동강문화관,35.10828722,128.9474417,2,https://dbscthumb-phinf.pstatic.net/3764_000_4/20150718181248352_FK0VLESA4.jpg/GC042P28616.jpg?type=m4500_4500_fst_nce
399,초량교회,35.11714343,129.0369614,2,http://imgnews.naver.net/image/082/2012/11/05/20121105000032_0_59_20121105143434.jpg
400,안적사(부산),35.21427668,129.1698889,2,https://cdn.visitkorea.or.kr/img/call?cmd=VIEW&id=5e872a9b-dfcb-4baa-9048-0cc4640b26bb
401,진관사계곡,37.63792871,126.9465497,1,http://cfile208.uf.daum.net/image/194E740B4A5E83460817B9
402,청담공원,37.5211580726,127.0526683289,1,http://post.phinf.naver.net/MjAyMjA0MjhfMjUg/MDAxNjUxMTMxMDQyODM2.eq8KW2nBsTdpz21LETItaDDvfmaxc5OY-MjoArbl4CAg.rgA4FyMM5BggzONyX3GAT_a84jz5kx3Vg5aapyKtD7wg.JPEG/IbUyOH8VcooZatp5pCQvg8AJlKMA.jpg
403,효사정,37.5106549012,126.9627629237,1,http://imgnews.naver.net/image/5041/2017/09/07/448255_423065_2218_20170907082710666.jpg
404,서울 삼전도비,37.5102657658,127.1011836669,1,https://dbscthumb-phinf.pstatic.net/2765_000_45/20181009222224722_9SCXWSAO2.jpg/499088.jpg?type=m4500_4500_fst
405,인왕사(서울),37.5786358368,126.9597168346,1,http://post.phinf.naver.net/MjAxOTA3MTVfNDYg/MDAxNTYzMTU5MDMzMjg5.i0F1Vtp3Rw2Ly13UuNa82-uOnM6R6itIYNjrZfYHk8Qg.lRo-fvMEkPXkU1zDxxz6oiIq6udLUpzwNQ12btAkqmYg.JPEG/Izq7R1pBhOXHGwMxuReOi1umFW40.jpg
406,창덕궁 인정문,37.5787974932,126.9911806294,1,https://dbscthumb-phinf.pstatic.net/2765_000_68/20181113205424325_3ILOUUCZ1.jpg/1014855.jpg?type=m4500_4500_fst
407,온수도시 자연공원(잣절공원),37.5009649129,126.8381773249,1,http://imgnews.naver.net/image/277/2017/11/13/0004116887_001_20171113072829896.jpg
408,선유도공원,37.5424362298,126.9018342452,1,http://post.phinf.naver.net/MjAyMjA3MDVfMjk5/MDAxNjU3MDE0NTA0MTg2.LKPsSFFKftbIb6VtwEWWM9_tyV3mi8l3AlWMG9EbWYcg.Yv42g7V4hs5kDRoEMwr6kI-mgUPbvbaZKyL0tnxC-gUg.JPEG/IsSeBgUlY6SIaUupD-BWVgo_IUc8.jpg
409,광희문,37.56437728,127.0096987947,1,http://imgnews.naver.net/image/032/2020/12/29/0003051260_001_20201229172148385.jpg
410,서울 애니메이션센터,37.5598523283,126.9831152342,1,http://imgnews.naver.net/image/5575/2022/06/08/0000291414_002_20220608123603050.jpg
411,서대문독립공원,37.5766554381,126.9556450402,1,https://cdn.crowdpic.net/detail-thumb/thumb_d_130CD97F4D89F4452640ECB78E98C87E.jpg
412,관음사(서울),37.4676601403,126.9765239933,1,http://post.phinf.naver.net/MjAxODA3MDZfMTgx/MDAxNTMwODYxOTg4NTA0.0wA9Qt-WNKxHcp6q6lcDT2RLyJ3HuDNPX9ZJy12_bJkg.SaJRQtWlMZI-SyAZxHOKMGNXuIVHMHGekoHp_kxTs7gg.JPEG/IzEJ00RJU2mtyPq-1-3PK6tHvEjA.jpg
413,천도교중앙대교당,37.5752366988,126.9857645568,1,https://dbscthumb-phinf.pstatic.net/2765_000_372/20210107072419747_MGD1IL9GD.jpg/5893082.jpg?type=m4500_4500_fst
414,승가사(서울),37.6265552757,126.9603404195,1,https://dbscthumb-phinf.pstatic.net/2710_000_1/20131007184945104_DY80OVMM0.jpg/fb19_56_i2.jpg?type=m4500_4500_fst_n
415,예지원,37.5515258689,127.002658134,1,http://imgnews.naver.net/image/117/2021/11/28/202111281926183138_1_20211128193302137.jpg
416,수락산 당고개지구 공원,37.6687552242,127.0758064644,1,https://support.visitkorea.or.kr/img/call?cmd=VIEW&id=c428d1ed-c678-4553-bd77-6fca88e27f12
417,연세로,37.5557797448,126.9365529264,1,http://imgnews.naver.net/image/003/2014/01/03/NISI20140103_0009198264_web_59_20140103170010.jpg
418,고덕동 생태경관 보전지역,37.5670267098,127.1493110052,1,http://cfile215.uf.daum.net/image/245FDD3F521E063E0F8717
419,남산 야외식물원,37.5415658115,126.9969033844,1,http://cfile204.uf.daum.net/image/9912CA355B4A9E72308DB0
420,헌인릉 생태경관보전지역(오리나무림),37.4642652042,127.0819811618,1,http://tong.visitkorea.or.kr/cms/resource/06/1860206_image2_1.jpg
421,천호공원,37.5447233407,127.1269358994,1,http://post.phinf.naver.net/MjAxNzA1MjVfMTUz/MDAxNDk1Njc4NzQ4MTMx.DZX4mFtWKxspqgt5qZsUHHfKM6P2kAAzNLqN4ijR91Qg.23U-__R2C1tQbOhZg7XrL0ezwqNFanTGNqcsVFzrNeUg.JPEG/IhejvdMertgOtLjCQ_Ul8K7wtGys.jpg
422,북촌한옥마을,37.5791612548,126.9864254967,1,http://fimg1.pann.com/new/download.jsp?FileID=17713165
423,수국사(서울),37.6159499573,126.9047680128,1,http://post.phinf.naver.net/MjAxOTExMDVfMjk5/MDAxNTcyOTQ2ODI2NjU4.HPiXdzA5EvuLMJaPVz2ezoEbXkRotxkk5fmjbcRFwicg.k7PVHOtSQjDdc75jm6IeqTP8Hn_ogsMJusA4yM5hI7Qg.JPEG/IJK2OGR4N-CnKNUW3KiABfOFu9Yc.jpg
424,더벨스파 동대문현대시티아울렛점,37.5687878415,127.0076821872,1,http://post.phinf.naver.net/MjAxNjEyMTZfMjk0/MDAxNDgxODc0NzE5NDY5.fjdZN2WfF7EQQFZF5AYdQmX7-sU3IdG_-EIC5uNzAWMg.Gvd3mjqyUQqMAAkL0tyxTmUiqWSrVPokyusmWDnQgaog.JPEG/IaMEvlsNtMDXkOEWoEBdBrXHudas.jpg
425,관악산 낙성대공원,37.4711316683,126.9602475997,1,http://imgnews.naver.net/image/5003/2009/10/01/20091001100032_kjn_1.jpg
426,극락사(서울),37.6047383453,127.1133520931,1,http://imgnews.naver.net/image/5019/2015/05/06/0000108012_001_20181108182205422.jpg
427,황금온천,37.4919081987,127.0252660955,1,http://post.phinf.naver.net/MjAxNzExMDZfMjY3/MDAxNTA5OTQ1NTkzNzIz.9JNgwzBB1jmhWYNOaJFBY-b0lH1Mrnde6KHsu2Jx-zgg.jkt4ItSahzOBPMVu4CmLPPtt2PFBEFHO7Y0K8TrDcEYg.JPEG/IKbovL3blQmUwXlFSpzip2dr527s.jpg
428,천간사,37.6173975381,126.9341958425,1,https://cdn.visitkorea.or.kr/img/call?cmd=VIEW&id=be66af79-f7c3-4174-9ac7-ddf0808c8c83
429,올림픽대교,37.532416047,127.1053604352,1,https://dbscthumb-phinf.pstatic.net/2765_000_54/20181015185719951_D2SYS6UBF.jpg/48698.jpg?type=m4500_4500_fst
430,전주이씨광평대군파묘역,37.4869238843,127.0930295156,1,http://tong.visitkorea.or.kr/cms/resource/06/755406_image2_1.jpg
431,남산서울타워 한복문화체험관,37.5511312042,126.9878594933,1,http://post.phinf.naver.net/MjAxODAyMTRfMTcg/MDAxNTE4NTc1ODM1NDI5.N6CkXVNX0GB-Mroeg7jJ-Loy_piHgJM8CEJyDqf8BPkg.T45BTUj54KSkztHwBWYHaCmMCPiIlBG4lAFwSom_SM0g.JPEG/I6XEM4PPdk99yRkXBHFu8SiDXH20.jpg
432,용마폭포공원,37.5738526356,127.0906494851,1,https://dbscthumb-phinf.pstatic.net/2765_000_156/20181210032217159_BVAX3APXB.jpg/442714.jpg?type=m4500_4500_fst
433,강변스파랜드,37.5348266305,127.0916116181,1,http://post.phinf.naver.net/20160523_104/1463978556266HONnV_JPEG/IaUTK0ZWBkhBb1pbIExN5WSEdBks.jpg
434,미타사(성북),37.5851472015,127.0160170744,1,https://korean.visitkorea.or.kr/cms/resource/11/2031911_image2_1.jpg
435,서울 몽촌토성,37.5209871362,127.1229758237,1,http://post.phinf.naver.net/MjAxNzEwMDhfMjI4/MDAxNTA3NDYwNTI0OTQ1.DciFifk_T-A6syQ4gYJ1DUcj-rAoxg7wOSQTbb7bYyQg.iw32AeePAgJPVLA58IFYoXgvFr7iGDSx-IeqFCt0yp4g.JPEG/I3DqFARKXyfVk8WyrlV1fwGgA4zo.jpg
436,백사실계곡,37.6004834158,126.9663489448,1,http://storage.doopedia.co.kr/upload/_upload/jwupload/image/201306/26/20130626093834200/20130626093857144_thumb_800.jpg
437,서울 효창공원,37.545042586,126.9634757763,1,https://dbscthumb-phinf.pstatic.net/2765_000_356/20190905232842313_RN0PG4K4R.jpg/10328279.jpg?type=m4500_4500_fst
438,동십자각,37.576133703,126.9794373301,1,https://dbscthumb-phinf.pstatic.net/2765_000_20/20180913221210888_YIMNJFZWP.jpg/1733879.jpg?type=m4500_4500_fst
439,전통주갤러리,37.5784557709,126.9858672342,1,http://imgnews.naver.net/image/011/2021/05/31/0003916710_001_20210531094003058.jpg
440,이촌한강공원,37.5178208785,126.970759215,1,http://post.phinf.naver.net/MjAyMDA2MTlfNTEg/MDAxNTkyNTcxNjgzNzc3.YAnoVlNMxlcjjQCSPBS_fQK9OSqkKXJIlFU7QoOUSfQg.XdjWsvh8WPku6J2PLUAC8E78zFkLu7vvjSBG97gWuAcg.JPEG/Ior7-ztWELoKuqXrQyM_-fw3wNW4.jpg
441,서울 태릉(문정왕후)과 강릉(인순왕후) [유네스코 세계문화유산],37.6341401904,127.0971582841,1,https://cdn.visitkorea.or.kr/img/call?cmd=VIEW&id=18f56dc9-28f9-44bd-8918-6a38ca7cb985
442,수암사,37.676323953,127.0849276385,1,https://dbscthumb-phinf.pstatic.net/2765_000_333/20190316103412537_8BZSDI82G.jpg/553262.jpg?type=m4500_4500_fst
443,화계사(서울),37.6326415233,127.007322073,1,http://imgnews.naver.net/image/5019/2016/08/31/772108_44118_3756_99_20160831104506.jpg
444,서울 용산신학교와 원효로 예수성심성당,37.5344186461,126.9537436297,1,http://imgnews.naver.net/image/5437/2018/03/24/0000009533_004_20180324100221267.jpg
445,서울 고려대학교 본관,37.5894664364,127.032271026,1,https://cdn.visitkorea.or.kr/img/call?cmd=VIEW&id=1f8bfb56-fc99-46c6-8e26-a52b1d879874
446,서울 암사동 유적,37.560513245,127.1309239757,1,https://dbscthumb-phinf.pstatic.net/2765_000_391/20220324073503066_PHIPU04WZ.jpg/12543604.jpg?type=m4500_4500_fst
447,몽마르뜨공원,37.4955435016,127.0037401743,1,http://imgnews.naver.net/image/5286/2021/08/24/20210824500260_20210824135818082.jpg
448,사직공원(서울),37.5757085419,126.967680081,1,http://tong.visitkorea.or.kr/cms/resource/23/2526623_image2_1.jpg
449,충익공신경진묘역,37.5961975185,127.1049169938,1,http://tong.visitkorea.or.kr/cms/resource/22/1986022_image2_1.jpg
450,승동교회,37.5712538383,126.9863146199,1,http://imgnews.naver.net/image/009/2022/01/06/0004905346_001_20220106155601039.jpg
451,새남터기념성당,37.5249586869,126.9567186255,1,http://tong.visitkorea.or.kr/cms/resource/21/1985221_image2_1.jpg
452,순정효황후윤씨친가,37.5586776601,126.9939920541,1,https://dbscthumb-phinf.pstatic.net/2765_000_149/20181205021303767_OTB9OXJQ0.jpg/382382.jpg?type=m4500_4500_fst
453,숭인근린공원,37.576517682,127.0178504854,1,https://dbscthumb-phinf.pstatic.net/2765_000_227/20181224041948227_R1XGH39TG.jpg/8643353.jpg?type=m4500_4500_fst
454,봉국사(서울),37.6057001931,127.0062951545,1,http://imgnews.naver.net/image/5019/2020/11/15/0000289484_001_20201118103326483.png
455,서울 연세대학교 스팀슨관,37.5659535914,126.938163603,1,https://dbscthumb-phinf.pstatic.net/2644_000_2/20190718093052961_IHRZASIHD.jpg/6963b4d3-b8d5-40.jpg?type=m935_fst_nce
456,서울 신림동 굴참나무,37.4710197967,126.9169737649,1,http://imgnews.naver.net/image/5625/2021/12/17/0000004604_001_20211217170202870.jpg
457,서울창포원,37.6893801026,127.0481278444,1,http://post.phinf.naver.net/MjAyMjA1MjFfNDQg/MDAxNjUzMTE0NjgxOTk0.T847Ck3QehOEbmkTFV-f6ezEmsK635SxfTXbF0cqA3wg.tF40m_KDH-RKqgVH2U0Jv4Ij8bX6XmE0bfiZnbOtNW8g.JPEG/IWgzfYGtrqN5fIQ0BMtUwaCiDclI.jpg
458,경복궁,37.5788222356,126.9769930325,1,https://dbscthumb-phinf.pstatic.net/2644_000_4/20190815005120008_ZBWE8DA98.jpg/33c387ca-a81f-4d.jpg?type=m935_fst_nce
459,영등포 신길동 홍어거리,37.5105456646,126.9115453697,1,http://imgnews.naver.net/image/5118/2010/05/06/37607_5983_3728.jpg
460,황학정,37.5776027007,126.9640359154,1,http://imgnews.naver.net/image/5041/2017/08/03/440594_414054_2329_20170803101509069.jpg
461,창의문(자하문),37.5926982124,126.9665047068,1,http://tong.visitkorea.or.kr/cms/resource/27/1570527_image2_1.jpg
462,양화진외국인선교사묘원(외인묘지),37.5465275879,126.9111804997,1,https://dbscthumb-phinf.pstatic.net/2765_000_54/20181015205023601_JW9JH3JUB.jpg/648216.jpg?type=m4500_4500_fst
463,인사동,37.575431078,126.9833758804,1,https://dbscthumb-phinf.pstatic.net/2765_000_156/20181210025152359_8N2CDO1YP.jpg/340111.jpg?type=m4500_4500_fst
464,수락산 학림사,37.6821398057,127.0773476077,1,http://here.busan.com/data/editor/1805/d57c5f200f6e4ad68065afb1f722b76a_1527092285_3622.jpg
465,시그니엘서울 에비앙 스파,37.512623851,127.1025779177,1,https://thumb.mtstarnews.com/21/2019/11/2019111208163397431_1.jpg/dims/resize/1200/crop/1200x630!/optimize/
466,오휘&후스파명동,37.5621104492,126.9858871398,1,http://shop1.phinf.naver.net/20220803_226/1659506400311cPe1X_JPEG/40A1569599_0_600.jpg
467,서빙고동 부군당,37.5204876354,126.9930487758,1,https://dbscthumb-phinf.pstatic.net/2644_000_11/20180925201937408_89SIBYLRV.jpg/0c29845e-db5f-4f.jpg?type=m935_fst_nce
468,평화열차 DMZ 트레인,37.532560687,126.962623429,1,http://imgnews.naver.net/image/421/2014/05/04/848341_article_59_20140504145202.jpg
469,독립관,37.5730642335,126.9581338041,1,http://imgnews.naver.net/image/5783/2021/06/21/0000047605_002_20210621102032139.png
470,독립문,37.5746640029,126.955642319,1,http://imgnews.naver.net/image/047/2021/08/29/0002324872_001_20210830090906667.jpg
471,서울 경모궁지,37.5807946333,126.9994992588,1,https://dbscthumb-phinf.pstatic.net/2644_000_11/20180926191930177_0Z1RA18KF.jpg/137208b0-b1a0-46.jpg?type=m935_fst_nce
472,보광사 보광선원(서울),37.6500533176,127.0034858166,1,https://dbscthumb-phinf.pstatic.net/2818_000_1/20151210235901970_0LKIYZFLK.jpg/2025930_image2_1.jpg?type=m4500_4500_fst
473,정선옹주 묘역,37.502003497,126.8278087964,1,http://imgnews.naver.net/image/5290/2014/04/15/66079_43187_5949_59_20140415110202.jpg
474,중명전,37.5666207957,126.9725215638,1,http://imgnews.naver.net/image/057/2016/07/18/1468829335578c8e9753678_99_20160718171004.jpg
475,경희궁,37.570442502,126.9685079323,1,https://cdn.crowdpic.net/detail-thumb/thumb_d_D72514958EE9C9A115F0511FFBDA8F84.jpg
476,오목공원,37.52759023,126.8736538992,1,https://dbscthumb-phinf.pstatic.net/2765_000_227/20181224110607599_8R5ER9AZH.jpg/898606.jpg?type=m4500_4500_fst
477,호암산성,37.4474946828,126.9131692166,1,http://imgnews.naver.net/image/020/2015/05/19/71339479.1_99_20150519030732.jpg
478,유심사,37.5815082151,126.9870198203,1,http://tong.visitkorea.or.kr/cms/resource/35/2031835_image2_1.jpg
479,봉화산(서울),37.6086568514,127.0866155277,1,http://cfile205.uf.daum.net/image/11244E35517E5F781CB60E
480,고당조만식선생동상,37.5500801547,127.0771625,1,http://img.ezmember.co.kr/cache/board/2016/08/11/c8226527be07272d0dde63740664a960.jpg
481,봉은사(서울),37.5158782211,127.0577485719,1,http://imgnews.naver.net/image/5019/2020/05/29/0000274778_001_20200529175627272.jpg
482,익선동,37.5735203041,126.9897920161,1,http://imgnews.naver.net/image/421/2020/05/14/0004637524_001_20200514114916062.jpg
483,보라매안전체험관,37.4929339232,126.9172397911,1,http://tong.visitkorea.or.kr/cms/resource/01/1095001_image2_1.jpg
484,청와대 앞길,37.5835410742,126.9737681926,1,http://imgnews.naver.net/image/003/2017/06/25/NISI20170625_0013141692_web_20170625152303135.jpg
485,오동근린공원,37.6329891526,127.0321864624,1,https://dbscthumb-phinf.pstatic.net/2765_000_227/20181224232912814_KDXFWJD5Y.jpg/670013.jpg?type=m4500_4500_fst
486,학도암(서울),37.6519935361,127.0897584489,1,https://dbscthumb-phinf.pstatic.net/2818_000_1/20151211074829117_KHICWDKHH.jpg/2030339_image2_1.jpg?type=m4500_4500_fst
487,성덕사,37.603493565,127.0867351085,1,http://tong.visitkorea.or.kr/cms/resource/39/2350539_image2_1.jpg
488,내원사(서울),37.6266725544,126.9951622409,1,http://tong.visitkorea.or.kr/cms/resource/40/2360940_image2_1.jpg
489,금선사(서울),37.6207780461,126.9534467684,1,https://dbscthumb-phinf.pstatic.net/2818_000_1/20151210210445742_ID4NDSNNG.jpg/1927840_image2_1.jpg?type=m4500_4500_fst
490,자운암(서울),37.4487397158,126.9542210004,1,http://tong.visitkorea.or.kr/cms/resource/37/2363137_image2_1.jpg
491,상허이태준가옥(수연산방),37.5950623345,126.9947965053,1,http://imgnews.naver.net/image/5175/2019/10/14/0000101579_010_20191014101432553.jpg
492,종묘 [유네스코 세계문화유산],37.5731898785,126.9948998937,1,https://storage.doopedia.co.kr/upload/_upload/image5/travel/editor/2020/10/17/20201017203143171_thumb.JPG
493,"서울 헌릉(태종,원경왕후)과 인릉(순조,순원왕후) [유네스코 세계문화유산]",37.4653567754,127.0837087516,1,https://cdn.visitkorea.or.kr/img/call?cmd=VIEW&id=218fff3e-ff60-40c5-a981-8d5ff4205d1d
494,육군사관학교,37.6234664798,127.0998333455,1,http://img.bemil.chosun.com/nbrd/files/BEMIL085/upload/2006/02/P1010094.JPG
495,레일크루즈 해랑열차,37.5548277077,126.9717164149,1,http://post.phinf.naver.net/MjAyMDA2MDZfMjc5/MDAxNTkxNDUwODEwNzgw.kJ94HUxPJM3EEgukJnKALyLDhxC3p-n-g5jbREU6cM8g.gy5sa4rJWM4fLZEJ8Mx-5SEbVKz399aRFBupv-MgB3Eg.JPEG/I-Z5Rg0iKPa3PS900-sZlQkViUTw.jpg
496,롯데호텔서울 설화수 스파,37.565479425,126.9816346542,1,http://imgnews.naver.net/image/018/2016/11/10/PS16111000116g_99_20161110080608.jpg
497,망원정지,37.549871528,126.9046921083,1,https://dbscthumb-phinf.pstatic.net/2765_000_390/20220127060645315_CRYKWXP0H.jpg/9443369.jpg?type=m4500_4500_fst
498,용산가족공원,37.520106972,126.9845717812,1,https://dbscthumb-phinf.pstatic.net/2765_000_132/20181204070618850_LQJXAQWWW.jpg/9059622.jpg?type=m4500_4500_fst
499,북한산국립공원(서울),37.6215453578,126.9943263511,1,http://imgnews.naver.net/image/5369/2019/12/07/0000085865_001_20191207090204793.jpg
500,서울 남현동 요지,37.4748538047,126.979606844,1,http://tong.visitkorea.or.kr/cms/resource/47/2014947_image2_1.jpg
501,어린이 감각놀이터 디키디키,37.5681962916,127.0103125191,1,http://tong.visitkorea.or.kr/cms/resource/49/2561249_image2_1.jpg
502,국제음식문화거리(INTERNATIONAL FOOD STREET),37.5058319638,126.8914195585,1,http://tong.visitkorea.or.kr/cms/resource/49/2667349_image2_1.jpg
503,마로니에공원,37.5802419773,127.0027239807,1,http://post.phinf.naver.net/20160518_151/14635213864959yXln_JPEG/IasnFjEU88AwSr_G9eufiIoRA7tg.jpg
504,창덕궁 향나무,37.579286295,126.9894641053,1,https://dbscthumb-phinf.pstatic.net/5701_000_27/20200612185738954_KKNN8B2SM.jpg/bW9vbnBhcms1OHwz.jpg?type=m936&autoRotate=true
505,롯데월드타워&롯데월드몰,37.5126349603,127.1025918048,1,http://imgnews.naver.net/image/023/2019/07/13/2019071201627_0_20190713140106094.jpg
506,송재서재필선생상,37.5745084649,126.9556062153,1,http://tong.visitkorea.or.kr/cms/resource/47/2413947_image2_1.jpg
507,도선사(서울),37.6552274686,126.989734146,1,http://imgnews.naver.net/image/5041/2012/05/11/131760_99550_1532.jpg
508,아시아공원,37.5100820131,127.0767025661,1,https://dbscthumb-phinf.pstatic.net/2765_000_156/20181210063522770_1ZGIGV1WN.jpg/1713734.jpg?type=m4500_4500_fst
509,서울 정동교회,37.5654653714,126.9723466121,1,http://imgnews.naver.net/image/366/2016/11/13/2016111300651_2_99_20161115140807.jpg
510,서울 관상감 관천대,37.5781419576,126.9880281575,1,http://tong.visitkorea.or.kr/cms/resource/48/1984648_image2_1.jpg
511,율곡로,37.5769838749,126.9944914897,1,http://imgnews.naver.net/image/421/2021/04/27/0005316076_002_20210427161407068.jpg
512,순국선열추념탑,37.572925314,126.9555284897,1,https://dbscthumb-phinf.pstatic.net/2818_000_17/20161018164701347_42MKQRSFO.jpg/2413950_image2_1.jpg?type=m4500_4500_fst
513,서울 우정총국,37.5744256247,126.9825759817,1,http://www.doopedia.co.kr/_upload/image1/230000/235500/1024/235859.jpg
514,경희궁공원,37.5707591425,126.969105091,1,https://cdn.clien.net/web/api/file/F01/10070144/3029f88b10a353.jpg
515,용양봉저정 공원,37.5124879286,126.9575327922,1,http://imgnews.naver.net/image/015/2021/05/01/0004539690_001_20210501014901157.jpg
516,보광사(서울),37.5271063892,126.9973954154,1,http://imgnews.naver.net/image/5156/2013/10/01/22820_16851_1448_59_20131001183202.jpg
517,의열사(용산),37.5452647296,126.9605427036,1,http://imgnews.naver.net/image/001/2008/02/18/kp1_080218072800.jpg
518,공덕동 족발 골목,37.5444202509,126.9531378467,1,http://post.phinf.naver.net/MjAxNzExMjhfMjcy/MDAxNTExODc2NjM5NDA3.zMnaK8riGR0e36FpxjLSzRqAJ7H8RyBw1CVd9hT8-Mwg.D5RBF6b77MTnSxnPfWr-OjRh7BIwLlolfejBfBgPn00g.JPEG/I0eWhVLUEcfv33d9wRTodxGCQTa4.jpg
519,여의도샛강생태공원,37.5187393412,126.9218442005,1,http://post.phinf.naver.net/MjAyMTA4MzFfMjI5/MDAxNjMwMzgzNDI1OTUy.hmR047yBfmHsGmftjs5OYA5J8CfxEFiPhWtRgg2tlTog.1Wz5koSVKXQBVYZKM9HvvvcSKINDdz-Xa9uwi9B1Mfgg.JPEG/IDv_RZ2axISSB1K-ZHm1U-5SZFJg.jpg
520,아차산,37.5529441189,127.0998297997,1,http://post.phinf.naver.net/MjAyMTEyMTdfMTg5/MDAxNjM5NzM4NjE1MjY2.LAtXZPHDpKbcTW7AK4XyYFVUWZzNZwy4To5g5MICd_Eg.61IavG7sl2h_48-Z7dz7KgzY43F0f_hssPBYG6EGSrYg.JPEG/IbnuvksQtgB9ebT4D1Fqur9_-D7k.jpg
521,북악산,37.5928898572,126.9665491417,1,https://blog.kakaocdn.net/dn/x2asV/btrEPQcLnzA/KHfx43cytfSt2sSW6RuUpk/img.jpg
522,서울 경교장,37.5683899481,126.9677163958,1,http://post.phinf.naver.net/20160422_13/1461317002686Qtoce_JPEG/IS5TczvOa9lETodfaB3VTy8lUnAg.jpg
523,탑골공원,37.5710594522,126.9883005554,1,https://dbscthumb-phinf.pstatic.net/2765_000_356/20190905233034998_VHUIARUKC.jpg/10328732.jpg?type=m4500_4500_fst
524,대원군별장 (석파정),37.5991223247,126.9586719057,1,https://storage.doopedia.co.kr/upload/_upload/image5/travel/editor/2021/11/30/20211130232734058_thumb.jpg
525,도산공원,37.5214632538,127.0338117034,1,https://dbscthumb-phinf.pstatic.net/2765_000_132/20181204202249363_RLUQ8ZJCR.jpg/460935.jpg?type=m4500_4500_fst
526,국회의사당,37.5319710006,126.9142167446,1,http://imgnews.naver.net/image/5232/2021/09/28/0000169554_001_20210928150219002.jpg
527,명동 남대문 북창동 다동무교동 관광특구,37.5599771733,126.9753048316,1,http://imgnews.naver.net/image/003/2014/09/29/NISI20140929_0010181533_web_99_20140929093809.jpg
528,약수사(서울),37.4595603285,126.9344613837,1,http://imgnews.naver.net/image/5019/2016/07/16/762667_39857_551_99_20160716185506.jpg
529,갈산근린공원,37.5061176314,126.8684105358,1,http://post.phinf.naver.net/MjAxOTA2MjhfMjM5/MDAxNTYxNjg2NjMyMjQy.4ZypCosnJ12QicgyWmP201iHAG_VYB54HiF3Tm_nRcYg.534PxXrbbXS2j-oPDB71L8w7ZDfAr00dUhq1xUy6DhMg.JPEG/IJ3WEsJSC1H82_erGwGuXJCspQuw.jpg
530,자양동 양꼬치거리 (중국음식문화거리),37.5393839589,127.0651972268,1,http://tong.visitkorea.or.kr/cms/resource/88/2402888_image2_1.jpg
531,명성황후 조난지,37.5774168614,126.9779874266,1,https://dbscthumb-phinf.pstatic.net/2644_000_4/20190815000906949_Z9R0NZLRM.jpg/d030bbb5-07e1-41.jpg?type=m935_fst_nce
532,브이알존 큐브 강남점,37.4999239403,127.0255686191,1,http://tong.visitkorea.or.kr/cms/resource/64/2535164_image2_1.JPG
533,덕수궁,37.5661486714,126.9749296905,1,https://cdn.crowdpic.net/detail-thumb/thumb_d_E0917975B004300516AF60926AA4B607.jpg
534,일자산허브천문공원,37.5373496895,127.1542252927,1,https://t1.daumcdn.net/cafeattach/1KI8e/5aa376af2d6dfcdd710a94a041d9de6809dde965_re_1654703555843
535,해풍부원군윤택영댁재실,37.5583638148,126.9944031366,1,http://tong.visitkorea.or.kr/cms/resource/32/2531132_image2_1.jpg
536,스파 도향,37.5082981035,127.0331260275,1,http://tong.visitkorea.or.kr/cms/resource/16/2647416_image2_1.bmp
537,방화대교,37.5876685005,126.825684361,1,http://imgnews.naver.net/image/001/2016/05/19/AKR20160519163500004_02_i_99_20160519170008.jpg
538,KT스퀘어,37.5722035751,126.9778070347,1,http://imgnews.naver.net/image/001/2018/09/17/PYH2018091713130001300_P4_20180917150240873.jpg
539,디지털 파빌리온,37.5795344793,126.8897676324,1,http://imgnews.naver.net/image/5362/2017/12/23/201769911513939125_20171223084235933.jpg
540,청계천 버들습지,37.572476847,127.0379904319,1,http://tong.visitkorea.or.kr/cms/resource/78/1860178_image2_1.jpg
541,삼각산,37.658246583,126.9909006206,1,https://cdn.clien.net/web/api/file/F01/2227766/e2290c1c77674064909.JPG
542,서울 운현궁,37.5764588036,126.9871421746,1,http://post.phinf.naver.net/MjAxODAzMDFfMTg4/MDAxNTE5ODk3MDM5NjIz.Gq1nuIVAikcYR5ibv_OtwlUyCwASWynRcQRjauLxl7Ug.LCTojMB0PqmynlQFLp7bkmJs3qivPxuNIdIGTs2aDLcg.JPEG/IfXiHeXj6sjfiObwQgcxOsWlp3p8.jpg
543,스파레이,37.5178689471,127.0182354456,1,https://ccimg.hellomarket.com/images/2019/item/06/26/02/2027_4299160_2.jpg?size=s6
544,대한제국군 서울시가 전투지,37.5607020615,126.97375773,1,http://imgnews.naver.net/image/047/2015/02/28/IE001804303_STD_99_20150228155303.JPG
545,달마사(서울),37.4985229748,126.9626521644,1,http://imgnews.naver.net/image/5699/2019/07/06/0000003540_001_20190706203706463.jpg
546,난지천공원,37.5725158027,126.8870625217,1,https://cdn.ppomppu.co.kr/zboard/data3/2022/0704/900w_20220704003036_nrzpm7G9HW.jpg
547,보신각 터,37.5698150675,126.9835760212,1,https://cdn.visitkorea.or.kr/img/call?cmd=VIEW&id=974fd2b7-9d76-478c-94cc-e5db16557a7e
548,윌리엄해밀턴쇼 동상,37.6056986983,126.9229971951,1,http://imgnews.naver.net/image/003/2010/06/22/NISI20100622_0003054173_web.jpg
549,목멱산봉수대터,37.5523504964,126.9872817336,1,https://cdn.visitkorea.or.kr/img/call?cmd=VIEW&id=36739e73-3ee9-446f-8d25-d69196b7a9cb
550,서울 연세대학교 언더우드관,37.5649231574,126.9383080636,1,https://dbscthumb-phinf.pstatic.net/2818_000_1/20151211011626910_DJKQSN8SG.jpg/1505579_image2_1.jpg?type=m4500_4500_fst
551,잠실한강공원,37.5210783227,127.0969170819,1,http://post.phinf.naver.net/MjAyMjAyMTBfMTkw/MDAxNjQ0NDg0NzgzMDc2.n6vaQ3wQSpNRjb1KelwVLuIHLKkK5cZpU1zQXTBvPGEg.QPLmqZNmxjsHwdFbCi3PwpcPgbDcHBogn2617SIdMfIg.JPEG/IVmVkt7r-cb0TG3BCPgbAxfw1mjI.jpg
552,응봉산(서울),37.5471796096,127.0281781551,1,http://cfile233.uf.daum.net/image/1909BA174BBC6D1B2FBE60
553,호국무공수훈자공적비,37.4846647857,127.4955374641,1,http://korean.visitkorea.or.kr/cms/resource/80/2034180_image2_1.jpg
554,"서울 의릉(경종,선의왕후) [유네스코 세계문화유산]",37.6035486003,127.0582349259,1,http://tong.visitkorea.or.kr/cms/resource/83/2690683_image2_1.jpg
555,청와대,37.5839799278,126.9746792089,1,http://imgnews.naver.net/image/5002/2022/07/22/0002139575_001_20220722172601028.jpg
556,홍릉수목원,37.5924523515,127.0406812854,1,https://dbscthumb-phinf.pstatic.net/2765_000_58/20181024031838413_5Y2YU1TGZ.jpg/709370.jpg?type=m4500_4500_fst
557,북촌 8경,37.5791612548,126.9864254967,1,http://cfile213.uf.daum.net/image/247EDF3B588DC332168F8A
558,탄천,37.4931289104,127.1036172651,1,http://post.phinf.naver.net/MjAyMjA0MDJfMjcg/MDAxNjQ4ODgxNDQ5MzA1.T7OZUKrMnApiI34wClUzZZiNxVwNlK_1zZlmiVrcKbEg.9RnIIM8Kyxd5eUcq-M-luIJeDh6BcfpERSLZetBzHZ4g.JPEG/Inma8Q5hmmX9WP_1tE5_jtn0Imqo.jpg
559,서울 약현성당,37.5591437954,126.9674194623,1,https://dbscthumb-phinf.pstatic.net/4795_000_2/20170825204706047_9EFUO2V95.jpg/ha70_71_i23.jpg?type=m4500_4500_fst
560,나석주의사동상,37.5655100385,126.9850482312,1,http://imgnews.naver.net/image/001/2016/12/28/PYH2016122802900037100_P2_99_20161228094904.jpg
561,청담패션거리,37.5259073966,127.0457632671,1,http://tong.visitkorea.or.kr/cms/resource/86/2728686_image2_1.jpg
562,한강시민공원 뚝섬지구(뚝섬한강공원),37.5294074983,127.0739744885,1,http://imgnews.naver.net/image/003/2021/05/14/NISI20210514_0017452334_web_20210514191842_20210514192012280.jpg
563,거북선나루터,37.5182707714,126.9676539295,1,http://tong.visitkorea.or.kr/cms/resource/84/2791384_image2_1.jpg
564,용왕정,37.5461658142,126.8717257737,1,https://dbscthumb-phinf.pstatic.net/2765_000_329/20190213020102734_7B85GUQ17.jpg/5450934.jpg?type=m4500_4500_fst
565,장충단공원,37.5576029665,127.0041161624,1,http://cfile5.uf.tistory.com/image/25392C3354E4A2A42A1678
566,감로암(서울),37.5753148419,127.0066015446,1,http://tong.visitkorea.or.kr/cms/resource/59/682259_image2_1.jpg
567,문화철도 959,37.5089677083,126.8912917045,1,http://post.phinf.naver.net/MjAxNzAyMTNfODAg/MDAxNDg2OTQ4MzE1MDMx.88ihCvQEt4_Mibl97g6qYM1jm_cbHLE0rI-_gp9gabwg.oYlzogjZ1an46M0BBEulvvr3q1u9SRQ4urHUk1gflBEg.JPEG/IERLvWp2DaapkpDf6lXRBjHqkY8s.jpg
568,약사사(서울),37.5869209605,126.8029808981,1,https://cdn.visitkorea.or.kr/img/call?cmd=VIEW&id=b5b4e22d-7338-44d6-ae7f-951b292fde15
569,용굴암(서울),37.6878781158,127.0822469969,1,http://imgnews.naver.net/image/5149/2018/06/18/0000030283_001_20180618165018439.jpg
570,북서울 꿈의숲,37.6233876457,127.0407498436,1,http://post.phinf.naver.net/20160902_259/1472805446287bohIV_JPEG/IN17L7-qFQoEFwbbgWUAeSKp9bNI.jpg
571,채석장 전망대,37.576359272,127.012553751,1,http://post.phinf.naver.net/MjAyMTA4MDVfMjYw/MDAxNjI4MTIwNTQ5NDE0.xkJfUayb3crzdjFwKNqQGcH7wkfHy-cvcsWog2puYe0g.a2k05MZbVBR0HvJegJ_m2gHxMVnSO_Vdk0QOSt_uELAg.JPEG/IiNekD7bS5C4sHHQ8eccaisq_c-E.jpg
572,서울 고려대학교 중앙도서관,37.5898997105,127.0317877244,1,https://ldb-phinf.pstatic.net/20150831_280/1441001185176g5ynX_JPEG/11591498_4.jpg
573,남강이승훈선생동상,37.54883584,127.0763931608,1,http://imgnews.naver.net/image/001/2005/05/09/kp1_2050509q1374.jpg
574,망우산(서울),37.594281087,127.1056030968,1,https://dbscthumb-phinf.pstatic.net/2765_000_305/20190114021058677_LIU24XIAQ.jpg/1491480.jpg?type=m4500_4500_fst
575,서울 석촌동 고분군,37.502194511,127.1028309684,1,https://i.pinimg.com/736x/dd/c8/f9/ddc8f950a199f6ab5a94b9e6d42fa855.jpg
576,시간을 담다,37.5627326749,126.9901422899,1,http://post.phinf.naver.net/MjAxODA0MTJfMjQ5/MDAxNTIzNTAzMjM3NjAx.136slt8tXEYRNM5QxhOiEDrQK9G0tiPQqHD9cZthL0Mg.4ZNMjvT4pyjDkbxsiJQB-Q8SaFWTZ0kMZTrWNExiFRgg.JPEG/IbjMnp-015X-wZae6lty_ZOltsHU.jpg
577,무중력지대 양천,37.5246489705,126.8773230917,1,http://imgnews.naver.net/image/5385/2018/02/26/0000199672_001_20180226094500023.jpg
578,서울 정릉(신덕왕후) [유네스코 세계문화유산],37.602350583,127.0063452451,1,https://dbscthumb-phinf.pstatic.net/2818_000_26/20191230164655190_HEPEAOMKM.jpg/2622291_image2_1.jpg?type=m4500_4500_fst
579,서울 동관왕묘,37.5727625733,127.0184394274,1,http://imgnews.naver.net/image/018/2014/05/14/PS14051400404_59_20140514151203.jpg
580,우당 이회영 선생 흉상,37.5648934636,126.9861287059,1,http://imgnews.naver.net/image/5244/2014/02/23/19259_4395_2047_59_20140223152201.jpg
581,"지양산(무장애숲길,유아숲체험원)",37.5210179822,126.8293886741,1,http://tong.visitkorea.or.kr/cms/resource/30/2617730_image2_1.bmp
582,3.1독립운동기념탑,37.5529562386,127.0015748587,1,https://dbscthumb-phinf.pstatic.net/2765_000_30/20180919181221752_8ZAHZBCTV.jpg/236000.jpg?type=m4500_4500_fst
583,중앙고등학교,37.5841440162,126.986850317,1,https://dbscthumb-phinf.pstatic.net/2644_000_14/20181023002142010_GOTG0D4TT.jpg/f92f61c9-6864-4e.jpg?type=m935_fst_nce
584,만해한용운심우장,37.5936180016,126.991669053,1,http://imgnews.naver.net/image/014/2019/02/12/0004175553_001_20190212094349532.jpg
585,온수공원,37.4996372593,126.8364636294,1,http://imgnews.naver.net/image/277/2017/11/13/0004116887_001_20171113072829896.jpg
586,서촌마을,37.5781277997,126.9729684191,1,https://a0.muscache.com/im/pictures/lombard/MtTemplate-1330735-media_library/original/23f87ab4-95dc-4c0d-a61c-a76e23b213cd.jpeg?im_w=720
587,방이동 생태경관 보전지역,37.5120857057,127.1403911599,1,http://cfile239.uf.daum.net/image/2633C64D57D3D8B1194C98
588,이충순 자결 터,37.5615435807,126.9709774034,1,https://dbscthumb-phinf.pstatic.net/2765_000_168/20181214022229182_BCFRVHTD4.jpg/382622.jpg?type=m4500_4500_fst
589,푸른수목원&항동철길,37.483080629,126.8240846662,1,http://imgnews.naver.net/image/047/2018/05/30/0002191243_005_20180530095308610.JPG
590,길상사(서울),37.599095196,126.9946241836,1,http://post.phinf.naver.net/20160717_76/1468736928927glEpX_JPEG/In0-yC-r76aXi3ZdXWNbqR0FXnJI.jpg
591,조계사(서울),37.5738701204,126.9818371759,1,http://imgnews.naver.net/image/032/2013/05/03/l_2013050301000328000035431_59_20130503155038.jpg
592,서울 삼각지 대구탕 골목,37.5344523297,126.9735279372,1,http://tong.visitkorea.or.kr/cms/resource/71/2531171_image2_1.jpg
593,세종로공원,37.5734839509,126.9760710456,1,http://imgnews.naver.net/image/001/2011/01/12/PYH2011011203070001300_P2.jpg
594,3.1독립선언기념탑,37.5745084649,126.9556062153,1,http://imgnews.naver.net/image/011/2019/04/23/0003543140_001_20190423111801453.jpg
595,장충동 족발 골목,37.5604832175,127.0057825956,1,http://tong.visitkorea.or.kr/cms/resource/98/2659598_image2_1.jpg
596,순명비유강원석물,37.54883584,127.0763931608,1,https://ldb-phinf.pstatic.net/20190614_279/1560474404129up8rY_JPEG/az9tG6H2Z_iK3ppaGN3oq0V-.jpg
597,경찰혼,37.5263408571,126.9006431406,1,http://imgnews.naver.net/image/656/2022/06/21/0000016299_001_20220621144930819.jpg
598,서울 영휘원(순헌황귀비)과 숭인원(이진),37.589647174,127.0435644361,1,http://tong.visitkorea.or.kr/cms/resource/02/1985602_image2_1.jpg
599,경희궁 흥화문,37.570481432,126.9710493661,1,https://dbscthumb-phinf.pstatic.net/2644_000_5/20170813134903071_2N2A6TJNH.jpg/f082277d-223b-44.jpg?type=m935_fst_nce
600,신천 어린이교통공원,37.5160067765,127.1017390089,1,https://dbscthumb-phinf.pstatic.net/2765_000_49/20181011213637698_EYXKXD5I3.jpg/499552.jpg?type=m4500_4500_fst
