ID,지역코드,이름,주소,위도,경도,개요,체크인,체크아웃,이미지
1,1,반얀트리 클럽 앤 스파 서울,,37.55012877,127.000525,,,,http://tong.visitkorea.or.kr/cms/resource/69/2719669_image2_1.jpg
2,1,하이서울유스호스텔,,37.52513549,126.9032235,,,,http://imgnews.naver.net/image/018/2018/01/05/0004005885_001_20180105111704711.jpg
3,1,아모렉스관광호텔,,37.56366116,127.0353298,,,,http://tong.visitkorea.or.kr/cms/resource/77/1361577_image2_1.jpg
4,1,라자호텔,,37.51544029,127.1082634,,,,https://pix10.agoda.net/hotelImages/568/568717/568717_16051917310042502384.jpg?s=1024x768
5,1,Nu Motel(엔유모텔),,37.51097365,127.0808744,,,,http://tong.visitkorea.or.kr/cms/resource/63/1920663_image2_1.jpg
6,1,트리아 관광호텔,,37.50292662,127.0394284,,,,http://tong.visitkorea.or.kr/cms/resource/92/1358992_image2_1.jpg
7,1,유로파라텔,,37.5001993,126.8921252,,,,https://cdn.visitkorea.or.kr/img/call?cmd=VIEW&id=bdfb8595-a578-48c7-8989-fd569fdcb3cc
8,1,고궁호텔,,37.57577572,126.9968246,,,,https://images.trvl-media.com/hotels/11000000/10090000/10083300/10083293/9330be13.jpg?impolicy=fcrop&w=1200&h=800&p=1&q=medium
9,1,르아브르,,37.54605984,126.8475613,,,,https://modo-phinf.pstatic.net/20211012_114/1634029961067fFEBi_JPEG/mosaBy2PvG.jpeg
10,1,씨엘모텔(CL모텔),,37.52839232,126.8405847,,,,http://imgnews.naver.net/image/022/2013/08/23/20130823002007_0_59_20130823155405.jpg
11,1,칼튼호텔,,37.5545395,126.8524717,,,,http://post.phinf.naver.net/MjAxNzAzMDhfNjgg/MDAxNDg4OTQ4OTAyMzUw.gFxqa36te6nqQmpkPoWrHkl8-pXb_kgenu2YHf-PTKUg.LDCVG4DAs5kyVn8myO-KqQT4lUVGNTMvP3Qu-xBF7X8g.JPEG/IVkC2LzxvEl3SOnzpT2gb25ipvus.jpg
12,1,쿠즈모텔,,37.57641442,126.9899891,,,,https://ldb-phinf.pstatic.net/20210712_90/1626075822129CHFxz_JPEG/wOTqzD2vjayIpz7EJj8Z5rSm.jpg
13,1,LikeU(라이크유),,37.55642951,126.927887,,,,http://shop1.phinf.naver.net/20220807_216/1659858739023fLFfj_JPEG/60994522703741446_1331898554.jpg
14,1,초콜릿,,37.52933677,126.8467646,,,,http://shop1.phinf.naver.net/20220727_266/1658893930246px7Ur_JPEG/66358626356187551_751771711.jpg
15,1,서울 선샤인호텔,,37.52062715,127.0287872,,,,https://support.visitkorea.or.kr/img/call?cmd=VIEW&id=a220bb66-5660-4dbb-b629-4244d4603e85
16,1,동서울 관광호텔,,37.53422393,127.0919227,,,,https://www.hotelscombined.co.kr/rimg/himg/0d/28/3c/expediav2-119466-b2670b-181025.jpg?width=1366&height=768&crop=true
17,1,지유,,37.57373465,127.0164674,,,,http://imgnews.naver.net/image/609/2022/04/05/202204051400131510_1_20220405140104827.jpg
18,1,쭈니홈(Juny home),,37.56077897,126.9256871,,,,
19,1,하우스테이(HOUSETAY),,37.55559624,126.9255984,,,,https://pix10.agoda.net/hotelImages/916/916221/916221_16060811440043270978.jpg
20,1,노보텔 앰배서더 강남,,37.50541503,127.0290348,,,,https://dbscthumb-phinf.pstatic.net/3764_000_1/20150310183643454_KFBVPJZ9N.jpg/GC048P01889.jpg?type=m4500_4500_fst_nce
21,1,베스트웨스턴 프리미어 서울가든호텔,,37.54089002,126.9483051,,,,http://img.justgo.kr/hotel/domestic/900832/t_%EB%94%94%EB%9F%AD%EC%8A%A4%20%EB%8D%94%EB%B8%94%20(1).jpg
22,1,김치한옥게스트하우스,,37.57809721,126.9710825,,,,https://pix10.agoda.net/hotelImages/336/336737/336737_16032515100041066700.jpg
23,1,Cozy Lodge,,37.48980157,126.9515979,,,,https://d2xf5gjipzd8cd.cloudfront.net/available/663411456/663411456_WxH.jpg
24,1,로얄호텔서울,,37.56443796,126.9858787,,,,https://ldb-phinf.pstatic.net/20191122_164/1574399768985LUGGq_JPEG/Bt957C62WFEzczyndDNmarfP.jpg
25,1,밀레니엄 힐튼 서울,,37.55554436,126.9754633,,,,http://post.phinf.naver.net/MjAyMjA2MjdfMTM1/MDAxNjU2MzM2ODg5NzI5.lhO83mq4O4cx_tDWUoB83YtRvnnuFWl6Lqr0usljloEg.lyMe1zQnFcwrpBrBWGCg7TJmtkT3XYje6lxUlw3W4ksg.JPEG/IBryPl6wEqx22qqI79AAw9CTbzCQ.jpg
26,1,이브(이브게스트하우스),,37.55854421,126.9867594,,,,http://shop1.phinf.naver.net/20210819_254/1629353884442TO8VK_JPEG/img_main.jpg
27,1,부티크호텔 르릿,,37.56642143,127.0064351,,,,https://ldb-phinf.pstatic.net/20200123_48/1579772856051nEhng_JPEG/2f50cm2-oUXEAhD4x_t4qK32.jpg
28,1,그랜드 워커힐 서울,,37.55522183,127.1107898,,,,http://post.phinf.naver.net/MjAyMDEyMjlfMTc1/MDAxNjA5MjI5MzU5NDY1.XyfIzPxbHLdERNRBxEK1yjytrZG0E8hKaCkStrPWb9Mg.LZrTjaPbklePo_3jYWsJandIYLBkZnHwYPZh7IyIuAEg.JPEG/I5N1RfGF1JKcIGRPH71rMd6grbwQ.jpg
29,1,롯데호텔서울,,37.56540165,126.9810458,,,,https://a.travel-assets.com/ugc/hotel-reviews/F04521BA6AFE5B657BA8FEB11FE3A3CAB744356C1613959195647.jpg?impolicy=rs&w=520
30,1,코리아나 호텔,,37.56787072,126.9762823,,,,http://shop1.phinf.naver.net/20220706_98/1657072734707Kxa52_PNG/58208623373759352_2127536547.PNG
31,1,웨스틴 조선 서울,,37.56452118,126.9800598,,,,http://post.phinf.naver.net/MjAyMjA3MTRfOCAg/MDAxNjU3NzgyMDA4MDg0.znSpuxGh4JtcHKRLW0weqd3UWBJ5u8LSSQ9GR_92ZRYg._BZNlJPt_yBqOuJjjNl0RZaNOPILVSYG9gXGoU5HD_Ug.JPEG/IlkuINfyjXQUq1EoPTJVhl_dkMsc.jpg
32,1,프레지던트 호텔,,37.5656518,126.9910032,,,,https://ldb-phinf.pstatic.net/20171102_285/1509610026468jWotI_JPEG/HmC6wZCvzvwd81zePmt76ayg.jpg
33,1,서울신라호텔,,37.55593373,127.0051689,,,,"https://res.klook.com/klook-hotel/image/upload/fl_lossy.progressive,q_85/c_fill/travelapi/1000000/20000/15100/15031/e7e6ec6b_z.jpg"
34,1,뉴서울호텔,,37.5679763,126.978196,,,,https://ldb-phinf.pstatic.net/20200515_67/1589524585476FIUoA_JPEG/DSC_0842.jpg
35,1,서울 크라운 관광호텔,,37.53180294,126.9904487,,,,https://cdn.visitkorea.or.kr/img/call?cmd=VIEW&id=ea5627c7-6db9-45a7-b67f-bc9a0ffdf5fb
36,1,퍼시픽 호텔,,37.5599107,126.98539,,,,http://tong.visitkorea.or.kr/cms/resource/58/1363558_image2_1.jpg
37,1,메트로호텔,,37.56519894,126.9837622,,,,https://ldb-phinf.pstatic.net/20150831_2/1441012550558Wuy2a_JPEG/SUBMIT_1405497081851_11658903.jpg
38,1,서울프린스호텔,,37.56073006,126.9863038,,,,https://content.r9cdn.net/rimg/himg/15/50/d6/revato-4320-11216467-306492.jpg?width=1200&height=630&crop=false
39,1,호텔PJ,,37.56496863,126.9956973,,,,http://www.ifamily.co.kr/image/brandplus/img_maincut_1190969152_s2_backimage.jpg
40,1,임피리얼 팰리스 호텔,,37.51366975,127.0358867,,,,https://d2xf5gjipzd8cd.cloudfront.net/reviews/e401245076ef544349f3ae709ce85bd7/e401245076ef544349f3ae709ce85bd7_WxH.jpg
41,1,호텔 리베라,,37.52391889,127.0543431,,,,https://dnvefa72aowie.cloudfront.net/origin/article/202201/0e484b90d83ff294a8b2212a4039a175f563f1185f7e824a28d222715733cf37.webp?q=95&s=1440x1440&t=inside
42,1,해밀톤 호텔,,37.53479432,126.9937511,,,,https://www.hotelscombined.co.kr/rimg/himg/2d/3f/a2/revato-4601-13091834-423126.jpg?width=1200&height=630&crop=true
43,1,그랜드 인터컨티넨탈 서울 파르나스,,37.50959845,127.0608846,,,,https://cdn.clien.net/web/api/file/F01/13199934/31fb8a2db68b70.JPG?w=780&h=30000
44,1,호텔 프리마,,37.5241355,127.0522655,,,,http://jcleeco.godohosting.com/content/27281/1540200698655.jpg
45,1,임피리얼 팰리스 부티크 호텔,,37.53541655,126.9982451,,,,http://post.phinf.naver.net/MjAxODEwMDVfNTUg/MDAxNTM4NzI3OTMzMTQy.xnlKiMySco3Ms8qwNf38g1ewAI2mP8HfJcMnHHCvUG4g.iIxBsR-UUzSWWrLsX0E9witdhckPsANkeLBVMv9uIjAg.JPEG/I22gTDhthh3FY8UKFHJUOT-OZHA4.jpg
46,1,자이언트 호텔,,37.5123646,127.0497661,,,,http://shop1.phinf.naver.net/20191119_29/1574127649315uiojr_JPEG/11488387948002845_459383615.jpg
47,1,The-K호텔서울 (더케이호텔서울),,37.46826108,127.0330577,,,,http://imgnews.naver.net/image/5001/2016/05/26/253087_71175_3123_99_20160526110311.jpg
48,1,동화킴스관광호텔,,37.60950475,126.9751368,,,,https://cdn.visitkorea.or.kr/img/call?cmd=VIEW&id=c903ed4d-c41b-49f1-8364-1aeb2529aa2d
49,1,JW 메리어트 호텔 서울(JW Marriott Hotel Seoul),,37.50497018,127.0032288,,,,http://tong.visitkorea.or.kr/cms/resource/64/2621164_image2_1.jpg
50,1,인터컨티넨탈 서울코엑스,,37.51293133,127.057307,,,,http://post.phinf.naver.net/MjAxOTExMjdfNDAg/MDAxNTc0ODM2MDY1NTIw.MuATbLOhzZIa7FTHlmV-gzdi-efh8EoSP8iECVzmM7kg.i0G9leKuHIlScoPPJ5HKKxNxLXBiMXBrEFv_nHscqcgg.JPEG/IHn4na4YWtKH-P3orsHDwK43GJ0M.jpg
51,1,호텔 레이크,,37.50693282,127.1010366,,,,https://d2xf5gjipzd8cd.cloudfront.net/reviews/439cebf31e5f862abc8831b98e36a0ef/439cebf31e5f862abc8831b98e36a0ef_WxH.jpg
52,1,메이필드호텔,,37.54788135,126.819486,,,,http://post.phinf.naver.net/MjAxODEwMDNfNzkg/MDAxNTM4NTI0NzQyNTUy.g9dp0OCpsv942heeYiwDdWesar7sobq6CQHKsF3JkMcg.I9HYvGcgAVtwBkguxtiK6pmT3fuERvFRk3Nom4-kxMkg.PNG/IpdC1x19jb7dMJuD30ooTnCL3McE.jpg
53,1,파크 하얏트 서울,,37.50871528,127.0642648,,,,http://post.phinf.naver.net/MjAyMTAyMDVfMjY5/MDAxNjEyNTA1MDg0MTU5.yvU4FKZ0q92_y8oCEaPF8kMxXNK_taJ1ivR9WFLN58Ig.pIEyPaBz2nW1vNYtdXHf4pilxU_6tE2QUPL-jQY-cNog.PNG/IO0Im0_oxMrZFRMA8eABx81Ryteo.jpg
54,1,나이아가라호텔,,37.54927946,126.8786334,,,,https://www.hotelscombined.co.kr/rimg/himg/a3/73/dc/leonardo-1065903-SNC_Corner_King_Suite_with_Jacuzzi_O-428560.jpg?width=1366&height=768&crop=true
55,1,캘리포니아 관광호텔,,37.4941624,127.1191575,,,,http://tong.visitkorea.or.kr/cms/resource/40/1361640_image2_1.jpg
56,1,소라모텔,,37.55710193,126.9433412,,,,https://ldb-phinf.pstatic.net/20190410_168/1554883571531T3n8i_JPEG/Bz0SeJaEeDZuWMRdAgofyBrU.jpg
57,1,호텔스타,,37.50234324,127.0333151,,,,https://q.bstatic.com/images/hotel/840x460/313/31303559.jpg
58,1,베니키아 홈 the M호텔,,37.56384228,126.9133048,,,,http://shop1.phinf.naver.net/20220721_285/1658407616325ESudP_JPEG/59543444121731544_844483195.jpeg
59,1,호텔가을,,37.55677688,126.938025,,,,http://shop1.phinf.naver.net/20220213_116/1644693105219P5NTj_JPEG/45828884912412829_1608008933.jpg
60,1,레인보우호텔,,37.54149871,126.9721584,,,,https://d2xf5gjipzd8cd.cloudfront.net/available/497633314/497633314_WxH.jpg
61,1,카라모텔,,37.57233154,126.9892088,,,,https://ldb-phinf.pstatic.net/20160802_230/14701119584360c1GD_JPEG/176677544131809_2.jpeg
62,1,호텔명동,,37.56078271,126.9794572,,,,https://a.travel-assets.com/ugc/hotel-reviews/02AE6C765020987473B1110EE2CC8BC2C0B969931597045021486.jpg?impolicy=rs&w=520
63,1,호텔아띠,,37.56066638,126.9972167,,,,https://support.visitkorea.or.kr/img/call?cmd=VIEW&id=77d73ec8-21fc-49aa-954e-a420c4b0ef87
64,1,연우하우스[한국관광 품질인증/Korea Quality],,37.58233587,126.9853283,,,,http://tong.visitkorea.or.kr/cms/resource/77/2557477_image2_1.jpg
65,1,담소정[한국관광 품질인증/Korea Quality],,37.58139707,126.9842978,,,,http://tong.visitkorea.or.kr/cms/resource/20/2684320_image2_1.jpeg
66,1,엠 더블류(MW),,37.51132366,127.0834602,,,,http://tong.visitkorea.or.kr/cms/resource/55/2655155_image2_1.jpg
67,1,문게스트하우스 [한국관광 품질인증/Korea Quality],,37.57634218,126.988742,,,,http://tong.visitkorea.or.kr/cms/resource/89/2763789_image2_1.jpg
68,1,(K-POP)케이팝레지던스 충무로점,,37.5644631,126.9938363,,,,https://pix10.agoda.net/hotelImages/391/391715/391715_16071113170044561085.jpg
69,1,인우하우스[한국관광 품질인증/Korea Quality],,37.58276362,126.9869726,,,,http://tong.visitkorea.or.kr/cms/resource/01/2633701_image2_1.jpg
70,1,24게스트하우스 서울역점,,37.55171422,126.9741246,,,,https://exp.cdn-hotels.com/hotels/7000000/6610000/6603700/6603626/6603626_49_z.jpg
71,1,북촌마루한옥게스트하우스 [한국관광 품질인증/Korea Quality],,37.58320247,126.9874642,,,,http://tong.visitkorea.or.kr/cms/resource/25/2574025_image2_1.jpg
72,1,베니키아 서울 호텔,,37.55680048,126.8599154,,,,http://tong.visitkorea.or.kr/cms/resource/46/1936846_image2_1.jpg
73,1,메리골드 호텔,,37.55331029,126.9197545,,,,https://ldb-phinf.pstatic.net/20200622_237/1592806352775YqauP_JPEG/XitjAVBhtBWtC0hAh0qLfurV.jpg
74,1,청연재[한국관광 품질인증/Korea Quality],,37.58031388,126.9856533,,,,https://cdn.visitkorea.or.kr/img/call?cmd=VIEW&id=3ec55bc2-0bbe-4b68-a802-930ad88422a4
75,1,리치다이아몬드호텔,,37.64763993,127.0156237,,,,http://mimg1.coupangcdn.com/thumbnails/remote/595/image/product/content/vendorItemPackage/2015/08/04/3000593658/2b0fe31a-5225-4c67-9725-412bf1be86a2.jpg
76,1,오크우드 프리미어 코엑스,,37.51096491,127.0580653,,,,https://ldb-phinf.pstatic.net/20200630_185/1593485787389Tp52T_JPEG/2e9DMbRBp6AemxLSXxJnLumB.jpg
77,1,베니키아 프리미어 호텔 베르누이,,37.4974238,126.8459628,,,,https://pix10.agoda.net/hotelImages/807/807101/807101_17071208240054400779.jpg
78,1,써미트 호텔 서울,,37.56230525,127.0068408,,,,https://images.trvl-media.com/hotels/8000000/7390000/7382800/7382724/637896e0.jpg?impolicy=fcrop&w=1200&h=800&p=1&q=medium
79,1,호텔 이채,,37.55645748,126.9383722,,,,https://modo-phinf.pstatic.net/20210422_6/1619071370956sN50Q_JPEG/mosaC6l51l.jpeg
80,1,MK 리버티하우스,,37.55464712,126.9686445,,,,https://images.trvl-media.com/hotels/10000000/9420000/9415700/9415617/af114039.jpg?impolicy=fcrop&w=1200&h=800&p=1&q=medium
81,1,호텔 더 디자이너스 종로점,,37.57215374,126.9869145,,,,http://imgnews.naver.net/image/5002/2013/12/23/20131223000032_0_59_20131223094802.jpg
82,1,케이팝호텔 서울역점,,37.55478609,126.9741273,,,,http://tong.visitkorea.or.kr/cms/resource/18/2544718_image2_1.JPG
83,1,포포인츠 바이 쉐라톤 조선 서울역,,37.55117815,126.9729275,,,,https://d2uja84sd90jmv.cloudfront.net/posts/1um-Tje_vSV5Qpl9eRNikA/m.jpg
84,1,브라운스위트서울,,37.56097138,126.9683443,,,,https://thumbnails.trvl-media.com/G0llVrsrVmck1d55HVjdNa8WKmk=/773x530/smart/filters:quality(60)/images.trvl-media.com/hotels/6000000/5160000/5154300/5154229/062b44f5_z.jpg
85,1,게스트하우스서울삼촌[한국관광 품질인증/Korea Quality],,37.5826081,126.987492,,,,http://tong.visitkorea.or.kr/cms/resource/65/2049465_image2_1.jpg
86,1,베스트웨스턴 프리미어 호텔국도,,37.56633792,126.9962222,,,,http://tong.visitkorea.or.kr/cms/resource/51/1363451_image2_1.jpg
87,1,베스트웨스턴 아리랑힐 동대문,,37.59372677,127.0167029,,,,http://post.phinf.naver.net/MjAyMTAzMDVfMjc4/MDAxNjE0OTIzNDQ5ODQz.1oMjFkxM9W1ETWcuvNqparnsO5BFgjBeieTb2xozluYg.A472kg4URRJjtbq8ip4nwEf23wP2veLvUbK2e8a-61Mg.JPEG/I_BSMzp5OF7jWhN24EY04_HWUnKA.jpg
88,1,제리스플래닛,,37.49910464,127.0285128,,,,https://ldb-phinf.pstatic.net/20150831_128/14409929384876xneq_JPEG/SUBMIT_1408005208830_35307515.jpg
89,1,누하당[한국관광 품질인증/Korea Quality],,37.58034968,126.9681271,,,,https://cdn.visitkorea.or.kr/img/call?cmd=VIEW&id=24541f52-13c6-46bc-bf9a-930b5a9f3fd2
90,1,다자연한옥스테이 [한국관광 품질인증/Korea Quality],,37.57395085,126.9918363,,,,http://tong.visitkorea.or.kr/cms/resource/94/2629494_image2_1.jpg
91,1,시은재[한국관광 품질인증/Korea Quality],,37.57370357,126.9872478,,,,http://tong.visitkorea.or.kr/cms/resource/63/2447363_image2_1.jpg
92,1,호스텔 하루,,37.56899295,126.9842926,,,,https://ldb-phinf.pstatic.net/20200529_163/1590736573898RYd5N_JPEG/bgsHYpoZqW2YJbrpY23KhyG8.jpg
93,1,남산호스텔,,37.55808312,126.984604,,,,http://imgnews.naver.net/image/277/2020/10/06/0004767092_002_20201006100032570.jpg
94,1,57명동호스텔[한국관광 품질인증/Korea Quality],,37.56100498,126.983393,,,,http://tong.visitkorea.or.kr/cms/resource/84/2491484_image2_1.JPG
95,1,티마크그랜드호텔 명동,,37.55838853,126.9784351,,,,https://dnvefa72aowie.cloudfront.net/origin/article/202202/B342E52438751F0BC2CDF3AC842EB2A8EAFE8F03E4D0983EAC4C85E5BEEB2954.jpg?q=95&s=1440x1440&t=inside
96,1,풍경[한국관광 품질인증/Korea Quality],,37.58564681,126.9972243,,,,https://cdn.visitkorea.or.kr/img/call?cmd=VIEW&id=43e6e5f6-25e3-4441-8de7-d964f1457be1
97,1,롯데호텔 L7 명동,,37.56427129,126.9848483,,,,http://imgnews.naver.net/image/421/2016/01/11/1724994_article_99_20160111112607.jpg
98,1,서촌게스트하우스[한국관광 품질인증/Korea Quality],,37.57909154,126.9706492,,,,http://tong.visitkorea.or.kr/cms/resource/45/2447245_image2_1.jpg
99,1,롯데시티호텔 명동,,37.5669377,126.988059,,,,http://post.phinf.naver.net/MjAyMTExMjVfMjU3/MDAxNjM3ODE5NDczNDM5.JxbsI2CbNceHRm2I8Fp1nFfQaGN4dSJ1TeIgASdcffog.skQYzpVIVA1s-ujaDrrq-GYXrl0YcaWNeXFwZbFrkhQg.JPEG/ITQBwN7a1fX0InuCjfOMNGkBzcFQ.jpg
100,1,딜라이트 호텔 (HOTEL DELIGHT),,37.5181844,127.1071912,,,,https://modo-phinf.pstatic.net/20200924_238/1600920126111Y9eIB_JPEG/mosaRghb29.jpeg
101,1,롯데시티호텔 구로,,37.48508447,126.8966252,,,,http://post.phinf.naver.net/MjAyMjAzMjJfMTMy/MDAxNjQ3OTI4MjkzODQ4.ziexdIyg6merEnIzfrfGn9svPQbUHc_g8GS79jZzPnAg.cBwjLMcpBBS2eG2bxuEetoTTKkKq2dwJ2F5wyHikByUg.JPEG/I6lbAhd1t3DTZzbb259_MHQrnaw8.jpg
102,1,라마다 앙코르 서울 동대문,,37.57616787,127.0260442,,,,http://post.phinf.naver.net/MjAxNzEyMjBfMTY4/MDAxNTEzNzU2NzM0NTUy.ac7gpWZ5Tg9sUHiN6a-780n9lkmwr3hQKAy0WplCEm8g.WZr44Ibn-tapzvnkVEqCmYFyn7mc-Fzbu2FTbfZ3YGYg.JPEG/IFYSFamsP__1gizq-StaEYn7vtVE.jpg
103,1,혜화1938 [한국관광 품질인증/Korea Quality],,37.58957693,126.9986796,,,,http://tong.visitkorea.or.kr/cms/resource/50/2529150_image2_1.jpg
104,1,교대게스트하우스[한국관광 품질인증/Korea Quality],,37.49318017,127.0194916,,,,http://tong.visitkorea.or.kr/cms/resource/73/2491573_image2_1.JPG
105,1,예본의 집[한국관광 품질인증/Korea Quality],,37.49489503,127.0847856,,,,https://cdn.visitkorea.or.kr/img/call?cmd=VIEW&id=f5dbba50-94b8-49b8-bc6b-c0f554b6dfd9
106,1,잠실 상주호텔,,37.51013208,127.0805828,,,,http://mimg4.coupangcdn.com/thumbnails/remote/595/image/product/content/vendorItemPackage/2018/02/20/3013813709/634586b2-651c-4ab4-8b59-6dc70491ad7e.jpg
107,1,코트야드 메리어트 서울 남대문,,37.56125205,126.9768963,,,,http://post.phinf.naver.net/MjAyMjA0MDdfMjQ1/MDAxNjQ5MzEzODk3Mzg3.7aAeBbo_ngevGhY5aWJmJzmEq1CchSxWwgE_j3Lr9fQg.Zmm1h-dHUmGmn7dpQqubqsfS7FQ1181jO8KOToq9il0g.JPEG/Iy35CqTLQjCqvBB5mEVPk2_2e0vw.jpg
108,1,호텔 루체브릿지 [한국관광 품질인증/Korea Quality],,37.55962473,126.8361731,,,,http://tong.visitkorea.or.kr/cms/resource/62/2529162_image2_1.jpg
109,1,롯데호텔 L7 강남,,37.50576817,127.0516661,,,,https://img5.yna.co.kr/photo/yna/YH/2017/12/19/PYH2017121914690001300_P4.jpg
110,1,스탠포드호텔 서울,,37.58241187,126.8866623,,,,http://tong.visitkorea.or.kr/cms/resource/59/2548459_image2_1.jpg
111,1,베니키아 프리미어 여의도 호텔,,37.51383435,126.9215888,,,,https://www.hotelscombined.co.kr/rimg/himg/b4/82/18/expediav2-2691664-2b74f7-658691.jpg?width=1200&height=630&crop=true
112,1,성북동한옥은하수,,37.59280719,127.0031014,,,,https://ldb-phinf.pstatic.net/20171230_74/1514629793163CdJIP_JPEG/E63PzuEj4H3qN_Q7nGN3W_2Y.jpg
113,1,메이플레이스 호텔 서울 동대문,,37.57617016,126.9987522,,,,http://imgnews.naver.net/image/5002/2014/07/24/20140724000120_0_59_20140724110119.jpg
114,1,김치다운타운 게스트하우스 1B,,37.5607519,126.9649724,,,,https://images.trvl-media.com/hotels/17000000/16050000/16047400/16047370/5ce1c934.jpg?impolicy=fcrop&w=1200&h=800&p=1&q=medium
115,1,더메이하우스,,37.56794746,126.9191653,,,,https://www.kayak.co.kr/rimg/himg/71/90/7b/ean-537983-11821642_44_b-image.jpg?width=1200&height=630&crop=false
116,1,서울이야기 한옥(서울이야기한옥게스트하우스),,37.57700592,126.9846035,,,,http://post.phinf.naver.net/MjAyMTA2MDdfNzAg/MDAxNjIzMDU1NTkwOTEx.Y89-jf--0yZUuqSXngzWFGBHX4sYO59TDAlTrqrEFmMg.WEFMZYeqb3VVZSlDh00dW-Ew7V8lyC5LniqzWlXh5rgg.PNG/IvJ2Ll4K49amZrxN-0xCC9nFWdmE.jpg
117,1,신림빌(SS-Seoulstay),,37.48670135,126.919412,,,,http://tong.visitkorea.or.kr/cms/resource/28/2567028_image2_1.jpg
118,1,아이올라 2(아이올라 홍대 AIOLA Hongdae 爱游乐 弘大),,37.56299535,126.9243761,,,,
119,1,Funfun stay(펀펀스테이),,37.55593511,126.926776,,,,http://tong.visitkorea.or.kr/cms/resource/49/2567049_image2_1.jpg
120,1,로얄 홈스테이(로얄홈스테이),,37.47481235,126.9912836,,,,http://shop1.phinf.naver.net/20220112_257/1641994866914h3BME_JPEG/O1CN010E7KcK1KnlRjZK95g_214271209-0-lubanu-s.jpg
121,1,두리 게스트 하우스(두리 게스트하우스),,37.59164127,127.0371539,,,,https://pix10.agoda.net/hotelImages/444/444684/444684_13031813540010886724.jpg
122,1,소피아하우스,,37.47486029,127.0313021,,,,https://exp.cdn-hotels.com/hotels/12000000/11650000/11642900/11642882/11642882_15_z.jpg
123,1,아리하우스,,37.56035789,126.9867927,,,,http://shop1.phinf.naver.net/20210415_219/1618469348752v05lb_JPEG/9iu1f5n_20214912226784754.jpg
124,1,능마루게스트하우스(Nungmaru Guesthouse),,37.55878305,126.9852928,,,,https://pix6.agoda.net/hotelImages/517/517430/517430_15082113010034770894.jpg?s=800x
125,1,서울 타이완 게스트하우스,,37.55818858,126.9800489,,,,http://imgnews.naver.net/image/5349/2021/08/17/389354-0_20210817100421624.jpg
126,1,애플트리(Apple tree)(애플트리게스트하우스),,37.55815124,126.9111996,,,,https://thumbnails.trvl-media.com/h98abX2tkt_yZSu7TLRk9sYW2l4=/773x530/smart/filters:quality(60)/images.trvl-media.com/hotels/10000000/9710000/9709800/9709701/8e02f028_z.jpg
127,1,오렌지 게스트하우스,,37.55486564,126.9186657,,,,https://exp.cdn-hotels.com/hotels/17000000/16580000/16579700/16579678/74803f75_z.jpg
128,1,게스트하우스 G601(게스트하우스 G601_강남),,37.50485683,127.0326012,,,,https://ldb-phinf.pstatic.net/20180525_196/1527240292670Uur5Y_JPEG/FnELHfGYI1HyPetGocU2UuIJ.jpg
129,1,엘스테이(Gangnam AN guesthouse),,37.50487053,127.0220688,,,,http://tong.visitkorea.or.kr/cms/resource/32/2568832_image2_1.jpg
130,1,주연과 강모의 집(아트빌),,37.55809881,126.9303868,,,,
131,1,한스하우스(Hans house),,37.57747783,126.970427,,,,http://tong.visitkorea.or.kr/cms/resource/23/2571123_image2_1.jpg
132,1,이즈앳케이 게스트하우스(어뮤즈게스트하우스),,37.53148085,126.9958149,,,,http://shop1.phinf.naver.net/20200328_176/1585376637589xjhbF_JPEG/22736472135423609_1742754239.jpg
133,1,게더링 앳 홍대1(게더링앳홍대),,37.563212,126.9248538,,,,
134,1,게더링 앳 홍대2(게더링앳홍대),,37.563212,126.9248538,,,,
135,1,큐브 게스트하우스,,37.53576362,126.9920595,,,,http://post.phinf.naver.net/MjAxNzA1MzFfMjYx/MDAxNDk2MjA1NjM4MDA1.NbcMmp1Pw3r5rb9cF_4bXTdNFbXBiZ3CnXtNJxED7-sg.iqf_FeeYH5I1PiMA9bqZXcz4RVcEZ6ZlwJ7yalsfJDYg.JPEG/I-wv0mDY7Uwx3ZGm7okbI91LD_Ic.jpg
136,1,블루베리홈스테이,,37.50620829,127.1224707,,,,http://shop1.phinf.naver.net/20210102_97/1609548019893cu5oJ_JPEG/a8dd704a11418687d66c908a19144e7dd7cd96ec_5.jpg
137,1,비원스테이(비원게스트하우스),,37.57606723,126.9898919,,,,http://tong.visitkorea.or.kr/cms/resource/25/2031825_image2_1.jpg
138,1,오케이 게스트하우스,,37.51155695,126.9278105,,,,https://modo-phinf.pstatic.net/20190205_151/1549324125139x5F73_JPEG/mosa5I58x6.jpeg
139,1,티롤관광호텔,,37.51516091,127.0170467,,,,https://modo-phinf.pstatic.net/20210127_163/16117250571150fuH9_JPEG/mosaO68ZQk.jpeg
140,1,강남스테이힐(Gangnam Stay Hill),,37.50342917,127.0301237,,,,
141,1,서울 성북 홈스테이,,37.60179015,127.0404422,,,,https://ldb-phinf.pstatic.net/20170602_63/14963740541799oOc2_JPEG/186552525753_2.JPG
142,1,게스트하우스 류가(Guest House Ryuga),,37.54893022,126.918777,,,,https://www.hotelscombined.co.kr/rimg/himg/7d/e2/9a/expediav2-2624258-de433a-810421.jpg?width=1200&height=630&crop=true
143,1,북촌한옥게스트하우스 라온(라온게스트하우스),,37.57755301,126.9812038,,,,http://tong.visitkorea.or.kr/cms/resource/25/2573725_image2_1.jpg
144,1,보안스테이(BOANSTAY),,37.5791277,126.9735933,,,,http://imgnews.naver.net/image/5691/2021/08/20/0000004381_006_20210823112051084.jpg
145,1,아름다운 황토집,,37.62571026,126.9229855,,,,https://ldb-phinf.pstatic.net/20210420_77/1618886350190jfTmJ_JPEG/IMG_4394.jpg
146,1,북촌 게스트하우스,,37.57862797,126.9856811,,,,https://exp.cdn-hotels.com/hotels/8000000/7650000/7649000/7648918/516a7e3f_z.jpg?impolicy=fcrop&w=1000&h=666&q=medium
147,1,Tina`s Homestay,,37.50590505,127.0952288,,,,http://tong.visitkorea.or.kr/cms/resource/52/2575952_image2_1.jpg
148,1,더메이 포레스트빌,,37.56241635,127.0073907,,,,https://pix10.agoda.net/hotelImages/693/693136/693136_14103120050023118161.jpg
149,1,스타리아호스텔,,37.5584831,126.9861039,,,,https://images.trvl-media.com/hotels/8000000/7100000/7090400/7090330/11304d29.jpg?impolicy=fcrop&w=1200&h=800&p=1&q=medium
150,1,레이지폭스,,37.55357404,126.9139773,,,,https://images.trvl-media.com/hotels/13000000/12380000/12375200/12375156/8c80a2be_z.jpg
151,1,나루게스트하우스,,37.5513827,126.9179214,,,,http://shop1.phinf.naver.net/20220402_136/1648903686100IlwOm_JPEG/50039519910042911_1301379964.jpeg
152,1,레드,,37.55839975,126.9847596,,,,https://image-cdn.trenbe.com/product/editor/1640933634736-686c6527-edb3-4b18-9919-05a5c08f42a3.jpeg
153,1,어반우드,,37.55571847,126.9268538,,,,http://shop1.phinf.naver.net/20220809_190/1660029621061w0Ak4_JPEG/61165454883380337_1012213434.jpg
154,1,예하도예 게스트하우스(YEHADOYE guesthouse),,37.57440623,126.9850702,,,,https://thumbnails.trvl-media.com/XCIsY0YkpFT-DGGhrVxpF3JpnKU=/773x530/smart/filters:quality(60)/images.trvl-media.com/hotels/13000000/12500000/12498600/12498556/8cf06b31_z.jpg
155,1,소소하우스 [한국관광 품질인증/Korea Quality],,37.58027746,126.9681271,,,,http://tong.visitkorea.or.kr/cms/resource/61/2813661_image2_1.JPG
156,1,레스케이프 호텔 (L’Escape Hotel),,37.55971895,126.9795572,,,,https://cdn.visitkorea.or.kr/img/call?cmd=VIEW&id=12cab673-be22-4c46-8510-d233f4606d1d
157,1,호텔 유니크바이포레,,37.60382086,127.0622679,,,,https://ldb-phinf.pstatic.net/20160504_269/1462327431829Chk89_JPEG/176454513366869_19.jpeg
158,1,호텔 더 디자이너스 청량리,,37.58176761,127.047656,,,,http://imgnews.naver.net/image/468/2015/11/18/2015111801001021700070841_99_20151118181204.jpg
159,1,멀티스페이스 곳 [한국관광 품질인증/Korea Quality],,37.57970565,126.9872921,,,,http://tong.visitkorea.or.kr/cms/resource/46/2631146_image2_1.jpg
160,1,힐하우스 호텔 [한국관광 품질인증/Korea Quality],,37.5568471,126.981971,,,,https://cdn.visitkorea.or.kr/img/call?cmd=VIEW&id=9909912c-e174-4862-88b7-20a1c9332a5d
161,1,대우모텔(호텔 대우 인) [한국관광 품질인증/Korea Quality],,37.56275745,126.977849,,,,http://tong.visitkorea.or.kr/cms/resource/87/2636387_image2_1.jpg
162,1,호텔큐비(호텔QB) [한국관광 품질인증/Korea Quality],,37.57186259,127.0134566,,,,http://tong.visitkorea.or.kr/cms/resource/85/2634485_image2_1.jpg
163,1,프레이저 플레이스 센트럴 서울,,37.56542085,126.9675887,,,,http://post.phinf.naver.net/MjAyMTAxMDRfMjA5/MDAxNjA5NzM1NjEyOTQ1.EDVbQQJq21o-nQrRUhFcU7O_ZV2-QusUEEZw5QsY04sg.OjtHhYyu0aG9Y6svOeNR_SjMVrhnyoPQgQTHpCEJcj8g.PNG/I0OI1Xz27N_hun3N1vX6z892S1Q8.jpg
164,1,이화한옥,,37.58164674,126.9674549,,,,https://images.trvl-media.com/hotels/28000000/27390000/27384800/27384758/5f6e25f3.jpg?impolicy=fcrop&w=1200&h=800&p=1&q=medium
165,1,호텔 카푸치노,,37.5096951,127.0293736,,,,http://imgnews.naver.net/image/5097/2017/02/26/309223_142201_3720_20170226190024592.jpg
166,1,헬레나 홈스테이,,37.50156335,127.0653761,,,,http://post.phinf.naver.net/MjAyMTEyMzFfMjE0/MDAxNjQwODkwOTUyODcy.DXXabUO-Y5tZ8HEYRVwRF5WATkIC5-o-rvmjqBKkSJkg.jH7CgmS9PtAEle91KHuyFD9RIw5y5wmCPslXKj46Vv0g.JPEG/I96GWirFl6xE6VbdSAWHDS9iAvSA.jpg
167,1,포포인츠 바이 쉐라톤 서울 구로,,37.48323194,126.8988612,,,,http://post.phinf.naver.net/MjAyMTAxMDhfMjEw/MDAxNjEwMDkyNjAzMDYz.YnsaW7yuMeISw1cXgj7KAcUCQSqclk7SAEASrdbV-cQg.-XPHeOvovXx4ytbu2z_RrcyD7hDked4RcY4Bfmr2ycAg.JPEG/Iy2Ff9-y6SZViRkCzjgULyFyh3yU.jpg
168,1,리버사이드게스트하우스[한국관광 품질인증/Korea Quality],,37.53298788,127.0873259,,,,http://tong.visitkorea.or.kr/cms/resource/73/2491573_image2_1.JPG
169,1,세화호스텔[한국관광 품질인증/Korea Quality],,37.57478961,126.9903503,,,,http://tong.visitkorea.or.kr/cms/resource/04/2655504_image2_1.JPG
170,1,유진하우스[한국관광 품질인증/Korea Quality],,37.59044353,127.0003128,,,,http://tong.visitkorea.or.kr/cms/resource/16/2652516_image2_1.JPG
171,1,서울앤호텔 동대문,,37.57337921,127.0208531,,,,https://q-xx.bstatic.com/xdata/images/hotel/840x460/263706233.jpg?k=be73c909b9edd76c02be0a2102b5362fa49c7e2602ba6920496f653768b78d17&o=
172,1,응정헌 [한국관광 품질인증/Korea Quality],,37.64031997,126.9396891,,,,http://tong.visitkorea.or.kr/cms/resource/11/2813611_image2_1.jpg
173,1,일루와유 달보루,,37.64129206,126.938742,,,,https://cdn.visitkorea.or.kr/img/call?cmd=VIEW&id=cf8460c5-bd62-49fe-86f2-f43889d4881a
174,1,청향재,,37.64170593,126.9401974,,,,https://ldb-phinf.pstatic.net/20191225_132/1577263837512BGYNe_JPEG/NxBFc342ifKxV4N3dwVlXq4r.jpg
175,1,락고재 서울 북촌 한옥호텔 [한국관광 품질인증/Korea Quality],,37.58018335,126.9860755,,,,http://tong.visitkorea.or.kr/cms/resource/18/2698218_image2_1.jpg
176,1,한옥 게스트하우스 동촌재 [한국관광 품질인증/Korea Quality],,37.58011085,126.9698548,,,,http://tong.visitkorea.or.kr/cms/resource/93/2705893_image2_1.jpg
177,1,명동게스트하우스 꼬모 [한국관광 품질인증/Korea Quality],,37.56047733,126.9872287,,,,http://tong.visitkorea.or.kr/cms/resource/73/2491573_image2_1.JPG
178,1,하은재 [한국관광 품질인증/Korea Quality],,37.58193844,126.9712824,,,,http://tong.visitkorea.or.kr/cms/resource/88/2707588_image2_1.jpg
179,1,정스패밀리 [한국관광 품질인증/Korea Quality],,37.53387977,126.9512744,,,,https://ldb-phinf.pstatic.net/20160707_208/1467873447719A0W0P_JPEG/176657556740714_37.jpeg
180,1,스테이 데이 오프 [한국관광 품질인증/Korea Quality],,37.5773112,126.9712158,,,,http://tong.visitkorea.or.kr/cms/resource/99/2707599_image2_1.jpg
181,1,누와 [한국관광 품질인증/Korea Quality],,37.57963031,126.9677966,,,,http://tong.visitkorea.or.kr/cms/resource/39/2688239_image2_1.jpg
182,1,일독일박 [한국관광 품질인증/Korea Quality],,37.57853878,126.9685688,,,,http://tong.visitkorea.or.kr/cms/resource/45/2707645_image2_1.jpg
183,1,라마다 호텔앤스위트 서울남대문 [한국관광 품질인증/Korea Quality],,37.55998822,126.9720107,,,,http://tong.visitkorea.or.kr/cms/resource/28/2707728_image2_1.jpg
184,1,신촌 시스터즈 [한국관광 품질인증/Korea Quality],,37.55395494,126.9356725,,,,http://tong.visitkorea.or.kr/cms/resource/83/2708483_image2_1.jpg
185,1,페어몬트 앰배서더 서울 (Fairmont Ambassador Seoul),,37.52596917,126.9283267,,,,https://a.travel-assets.com/ugc/hotel-reviews/84BEC0AA546A3E5E058A309D7FB115BEE2CD77771628147530553.jpg?impolicy=rs&w=520
186,1,트레블로지 명동 시티홀,,37.56310464,126.9780962,,,,https://ldb-phinf.pstatic.net/20200707_17/1594117019687H8fy6_PNG/hwy-5N3vd8yJP1XBP8TRgLef.png
187,1,트레블로지 동대문 호텔,,37.56648245,127.0019078,,,,https://ldb-phinf.pstatic.net/20181208_150/1544258362252mWBdI_JPEG/WmbISS7Yn_557-kFwWg7Es5w.jpg
188,1,서울한옥스테이(jnpstay) [한국관광 품질인증/Korea Quality],,37.57696123,126.9708798,,,,http://tong.visitkorea.or.kr/cms/resource/49/2803349_image2_1.jpg
189,1,"조선 팰리스 서울 강남, 럭셔리 컬렉션 호텔 (Josun Palace, a Luxury Collection Hotel, Seoul Gangnam)",,37.50293499,127.0413727,,,,http://tong.visitkorea.or.kr/cms/resource/09/2786809_image2_1.jpg
190,1,루민북촌 [한국관광 품질인증/Korea Quality],,37.58156371,126.9841423,,,,https://cdn.visitkorea.or.kr/img/call?cmd=VIEW&id=5402d2b2-0d2f-4714-879e-0f3d484a6225
191,1,오클라우드호텔 [한국관광 품질인증/Korea Quality],,37.50309298,127.0237187,,,,http://tong.visitkorea.or.kr/cms/resource/14/2630114_image2_1.jpg
192,1,위고인호스텔,,37.55691581,126.9415885,,,,https://images.trvl-media.com/hotels/54000000/53590000/53581100/53581035/afd59776.jpg?impolicy=fcrop&w=1200&h=800&p=1&q=medium
193,1,린다픽 [한국관광 품질인증/Korea Quality],,37.53581362,126.9922179,,,,http://tong.visitkorea.or.kr/cms/resource/39/2688239_image2_1.jpg
194,1,포포인츠 바이 쉐라톤 조선 서울 명동,,37.56562955,126.9894367,,,,http://post.phinf.naver.net/MjAyMjA3MTFfNzkg/MDAxNjU3NTE3NzgxNTQ3.w4bt9zD8Fn7Tjk8P_i_dfTjYFZkoHQeUcm85rPNmFmog.MsK0JhLS2LUUB9D6OLcCCl3SgAAoSdcQHt0dYLy3N_og.JPEG/IgJFnyLtyd-0qJC-upJPr0welc5o.jpg
195,1,라이프스타일 F호텔,,37.517181,126.9112341,,,,http://mimg5.coupangcdn.com/thumbnails/remote/595/image/product/content/vendorItemPackage/2015/08/07/3000622557/69a64888-ffa9-4d81-894f-2d8bd881b505.jpg
196,1,힐탑 관광호텔,,37.51153103,127.0314678,,,,http://imgnews.naver.net/image/009/2014/05/27/20140528.01110307000004.01L.jpg_1401151292.jpg_99_20140527153516.jpg
197,1,캘리포니아호텔,,37.50658162,127.0323095,,,,https://ldb-phinf.pstatic.net/20210503_252/1619993823015GVFPV_JPEG/%C5%A9%B1%E2%BA%AF%C8%AF20210413_%C4%B6%B8%AE%C6%F7%B4%CF%BE%C6%C8%A3%C5%DA00336.jpg
198,1,부티크호텔K 동대문점,,37.56366711,127.0576417,,,,https://d2xf5gjipzd8cd.cloudfront.net/available/363723615/363723615_WxH.jpg
199,1,더리버사이드 호텔,,37.51878828,127.0180965,,,,http://post.phinf.naver.net/MjAyMTExMzBfNjEg/MDAxNjM4MjU3MzU4Mjc2.G2ATkh3kKnRSWylknUuSNCt-aE6JCVyTReT2GXGokOsg.2qy4Be5yVe5iyDhgxbuppthK0W2XEGyMPBNkzKvyZ4Qg.JPEG/IBuycPkPoRCTF_HDDyUsMHpznzyQ.jpg
200,1,엘르인호텔,,37.54040717,126.9722168,,,,https://ldb-phinf.pstatic.net/20190612_68/15603181741564FPL5_JPEG/CZ9A2117.JPG
201,2,부산도시공사 아르피나,,35.16467609,129.1382624,,,,http://imgnews.naver.net/image/001/2022/06/14/PCM20220426000114990_P4_20220614112516621.jpg
202,2,호텔포레 프리미어 남포 [한국관광 품질인증/Korea Quality],,35.09842317,129.0297348,,,,http://tong.visitkorea.or.kr/cms/resource/98/2708498_image2_1.jpg
203,2,부산관광호텔,,35.10033138,129.0346565,,,,https://i.pinimg.com/736x/34/36/b8/3436b898b4f4e6afc181b9c687595a63.jpg
204,2,부산센트럴호텔[한국관광 품질인증/Korea Quality],,35.1877669,129.0815723,,,,http://tong.visitkorea.or.kr/cms/resource/31/1215831_image2_1.jpg
205,2,토요코인호텔 (부산역2점),,35.10906378,129.0366311,,,,http://tong.visitkorea.or.kr/cms/resource/16/1347716_image2_1.jpg
206,2,폭시모텔,,35.16125185,129.1583441,,,,https://ldb-phinf.pstatic.net/20151102_237/1446441344379tPIEM_JPEG/166977548964769_18.jpeg
207,2,J모텔(제이모텔),,35.15848743,129.1127926,,,,https://modo-phinf.pstatic.net/20200211_287/15814027542062F1KJ_JPEG/mosa8nI2HC.jpeg
208,2,발렌타인 호텔,,35.16176844,129.1571998,,,,https://d2xf5gjipzd8cd.cloudfront.net/available/398530950/398530950_WxH.jpg
209,2,이코노미호텔 남포점,,35.09940926,129.0345344,,,,http://tong.visitkorea.or.kr/cms/resource/51/2537251_image2_1.jpg
210,2,윙민박,,35.18223917,129.200551,,,,https://ldb-phinf.pstatic.net/20180819_300/1534639509393J2bu1_JPEG/HU4eu2FVfWh6TtKfBAw6FvrG.jpg
211,2,부산비즈니스호텔,,35.15623382,129.0543533,,,,http://tong.visitkorea.or.kr/cms/resource/04/2393404_image2_1.JPG
212,2,힐 사이드 관광호텔,,35.10924986,129.0359895,,,,http://post.phinf.naver.net/MjAyMDA2MzBfMzAg/MDAxNTkzNTAzOTAwOTUz.Dql2NWzmU1FbgTJidkPnV7xBM1SJjHnhNM4kcGTsUQQg.OqahQBM5IhHo6Zg9Y9IqsMVeNM1Nm6D_7kZ18yGI_-Eg.JPEG/IHe5lDri9gJOXDs5N7YinF_bjKWM.jpg
213,2,호텔포레 부산역점,,35.12261519,129.044644,,,,https://d2xf5gjipzd8cd.cloudfront.net/available/247102212/247102212_WxH.jpg
214,2,호텔 파라곤,,35.1617402,128.98164,,,,https://images.trvl-media.com/hotels/3000000/2860000/2856400/2856306/67ad842e.jpg?impolicy=fcrop&w=1200&h=800&p=1&q=medium
215,2,호텔일루아,,35.16201591,129.1722151,,,,https://dbscthumb-phinf.pstatic.net/3764_000_4/20150718182258673_WUP4SKVAM.jpg/GC042P28733.jpg?type=m4500_4500_fst_nce
216,2,신라스테이 서부산,,35.09670441,128.9052901,,,,http://post.phinf.naver.net/MjAyMjA4MDFfMTE2/MDAxNjU5MzM1MzU0MDk0.EyQuYx3ntjiXyI-0GNOqyytFciuVbVAv6NQ5xbbylJsg.XoJ2QxUg-oKUOppgfTmTZdiqY_lNZjl_dHBft_1Xb38g.JPEG/IYLdmi4NzhhPY0ZqbX2MqZWW_He4.jpg
217,2,오름레지던스 호텔 [한국관광 품질인증/Korea Quality],,35.11244124,129.0402418,,,,https://images.trvl-media.com/hotels/46000000/45190000/45184300/45184203/c5bf8683.jpg?impolicy=fcrop&w=1200&h=800&p=1&q=medium
218,2,웨스틴 조선 부산,,35.15596347,129.1539891,,,,http://post.phinf.naver.net/MjAyMjAxMTNfMTMg/MDAxNjQyMDM2MzkzNDg1._ehH7cEEKUlX4DLguzgTboGaE0ZyghSue0MskK4e4jYg.cfHvkw71ufI3BxFi28tFyWcw2UPDEljZfKMuC9KWjgkg.JPEG/If-8jnOhFPgpT9ceHVguoR9YJto8.jpg
219,2,녹천호텔 [한국관광 품질인증/Korea Quality],,35.22053544,129.0808965,,,,https://cdn.visitkorea.or.kr/img/call?cmd=VIEW&id=0c4d6d7e-81fa-4ffc-8ad7-209c541ff5f5
220,2,호텔콘트(HOTEL CONT)[한국관광 품질인증/Korea Quality],,35.10192837,129.0314346,,,,http://tong.visitkorea.or.kr/cms/resource/88/2651288_image2_1.jpg
221,2,선셋호텔[한국관광 품질인증/Korea Quality],,35.16018258,129.16143,,,,https://support.visitkorea.or.kr/img/call?cmd=VIEW&id=0def0935-d461-443e-8d22-ce1f505d342c
222,2,해운대센텀호텔,,35.16792841,129.132985,,,,https://ldb-phinf.pstatic.net/20191015_107/1571130206116r6Adz_JPEG/-rHhGgN_0ZQx-6rC3Su7yWL5.jpg
223,2,카리브모텔,,35.18552551,129.0828722,,,,https://ldb-phinf.pstatic.net/20180905_124/1536130922283YOyp1_JPEG/6Yr5RYxKU83DOUYgox3QkEG_.jpg
224,2,르네상스호텔[한국관광 품질인증/Korea Quality],,35.16179022,128.9830038,,,,http://tong.visitkorea.or.kr/cms/resource/95/2532195_image2_1.jpg
225,2,호텔런더너,,35.15768781,129.1287274,,,,https://ldb-phinf.pstatic.net/20220619_246/16556475704532siVH_JPEG/1655392940816-27.jpg
226,2,더펫텔프리미엄스위트,,35.15924087,129.1531419,,,,http://tong.visitkorea.or.kr/cms/resource/38/2754638_image2_1.jpg
227,2,부산인모텔,,35.11656581,129.0415499,,,,https://thumbnails.trvl-media.com/8Q25uEbQfs2j3DLwIb6Uez1Oz_s=/773x530/smart/filters:quality(60)/exp.cdn-hotels.com/hotels/6000000/5650000/5648500/5648427/b87d2706_z.jpg
228,2,탑모텔,,35.11329671,129.0403585,,,,https://www.kayak.co.kr/rimg/himg/89/0d/79/hotelsdotcom-76446014-a907296a_w-610799.jpg?width=1366&height=768&xhint=1080&yhint=667&crop=true
229,2,테라게스트하우스,,35.09669005,129.0306042,,,,http://post.phinf.naver.net/MjAxODAyMDZfMTI1/MDAxNTE3ODk5NjAyMjM3.CHCoyiw5YDxaHtW2TOqY6XA6weuXjyl6sa3yB2jdbMIg.8hVcoYOuM0-8jpY_SYc6SGnI1ACZiDi-SMCLmjSUbagg.JPEG/Id4YgltxtAnX2rVCF3r3wRNwFnQE.jpg
230,2,해운대 영무파라드호텔,,35.16097426,129.1665518,,,,https://ldb-phinf.pstatic.net/20220329_274/1648530311484lTGTV_JPEG/KakaoTalk_20200720_192255363_06.jpg
231,2,"해운대 H STAY HOTEL (구, 시타딘호텔)",,35.16300999,129.1584857,,,,http://tong.visitkorea.or.kr/cms/resource/29/2713229_image2_1.JPG
232,2,호메르스호텔,,35.15346586,129.1180034,,,,https://dnvefa72aowie.cloudfront.net/origin/article/202107/1AEC1D18AA303246F539DFD7D17E207B864DEE976442CCC91F6073CECEDD00B7.jpg?q=95&s=1440x1440&t=inside
233,2,호텔야자 화명점,,35.23458809,129.0089246,,,,http://tong.visitkorea.or.kr/cms/resource/19/2487719_image2_1.jpg
234,2,토요코인호텔 (부산역1점),,35.11417162,129.0407973,,,,http://tong.visitkorea.or.kr/cms/resource/27/1346227_image2_1.jpg
235,2,베이몬드호텔 [한국관광 품질인증/Korea Quality],,35.15959923,129.1567804,,,,http://tong.visitkorea.or.kr/cms/resource/66/2807966_image2_1.png
236,2,영도 비치모텔,,35.06939403,129.0809645,,,,https://cdn.visitkorea.or.kr/img/call?cmd=VIEW&id=898da29d-efe1-4f52-b8cd-45f53804149c
237,2,1박2일호텔,,35.13763063,129.0694081,,,,http://post.phinf.naver.net/MjAyMTAzMjVfMjMz/MDAxNjE2NjM1ODU2ODU4.InRCoFbveHVAimmL-281Bi4kl2ULhj32yK33qnm6K7Eg.CtsAyOqrZyGMC4kAceyI3FfnbyUFtqwlHQWu47_mliQg.PNG/IMqPj3SsBLTAu-DVur_EnwfTN37I.jpg
238,2,COM MA(호텔콤마),,35.14861256,129.0601641,,,,http://tong.visitkorea.or.kr/cms/resource/13/1744413_image2_1.jpg
239,2,부산뷰호텔,,35.11339948,129.0405946,,,,https://img.theqoo.net/img/MnqIf.jpg
240,2,호텔 프렌치코드 [한국관광 품질인증/Korea Quality],,35.24494958,129.0923142,,,,http://tong.visitkorea.or.kr/cms/resource/61/2698261_image2_1.jpg
241,2,오이아호텔 [한국관광 품질인증/Korea Quality],,35.05744616,128.9727631,,,,https://cdn.visitkorea.or.kr/img/call?cmd=VIEW&id=9a57152c-0614-4480-b9cc-a8249fdeb021
242,2,호텔 아쿠아펠리스,,35.15411025,129.1187505,,,,https://dbscthumb-phinf.pstatic.net/3764_000_4/20150718162947233_4WLYZQ72I.jpg/GC042P27119.jpg?type=m4500_4500_fst_nce
243,2,베스트웨스턴 해운대호텔[한국관광 품질인증/Korea Quality],,35.16050754,129.1611772,,,,https://cdn.visitkorea.or.kr/img/call?cmd=VIEW&id=471dfbd2-8734-458a-8634-3628a60069ca
244,2,아르반호텔[한국관광 품질인증/Korea Quality],,35.15468405,129.0572642,,,,http://tong.visitkorea.or.kr/cms/resource/62/2721062_image2_1.jpg
245,2,부산 애플게스트하우스,,35.09800658,129.0308903,,,,http://tong.visitkorea.or.kr/cms/resource/14/2394414_image2_1.jpg
246,2,파라다이스호텔 부산,,35.15994099,129.1641214,,,,http://post.phinf.naver.net/MjAyMTA0MTVfMjkz/MDAxNjE4NDcyMTc3NTUy.9uoVx4j1lhv087T0_JnvtmMiPGp_WbsCgAGLZ9A3WPsg.VfxJWAirqEPiThwyuHCQoRHx4nRHk7SxyPRmzY7e9XAg.JPEG/ITpMlQbF1T0N_5agbSa2qJnWCfuM.jpg
247,2,코오롱 씨클라우드 호텔[한국관광 품질인증/Korea Quality],,35.16047423,129.1622549,,,,http://tong.visitkorea.or.kr/cms/resource/39/2737739_image2_1.jpg
248,2,베스트루이스해밀턴호텔(케이알코스모랜드)[한국관광 품질인증/Korea Quality],,35.15965474,129.1546112,,,,http://tong.visitkorea.or.kr/cms/resource/38/2684338_image2_1.jpg
249,2,베니키아 프리미어 마리안느호텔,,35.16151305,129.164688,,,,http://post.phinf.naver.net/MjAyMDA5MDNfMjgg/MDAxNTk5MTA3OTQyMTM1.KxFje-iKVPfHar6QtUUPQulr3QfoD3o82n2F2cFbAYIg.xRDsE10eu6k3kkfMfgZxi4BivfgWwN2xnpoptwF9J8wg.JPEG/I1d3I6YDYxxvQmzrHQrb4hKyn95M.jpg
250,2,플레아 드 블랑 (PLEA DE BLANC),,35.16097982,129.1668989,,,,https://www.hotelscombined.co.kr/rimg/himg/17/a3/c9/expediav2-4686862-ccccfb-450801.jpg?width=1366&height=768&crop=true
251,2,한화리조트 해운대,,35.15448847,129.145101,,,,https://dbscthumb-phinf.pstatic.net/3764_000_4/20150718080409075_LJHEFHJCY.jpg/GC042P20861.jpg?type=m4500_4500_fst_nce
252,2,호텔야자 사상터미널점,,35.16562314,128.9840897,,,,http://tong.visitkorea.or.kr/cms/resource/45/2487745_image2_1.jpg
253,2,호텔엔젤[한국관광 품질인증/Korea Quality],,35.15409531,129.0619083,,,,http://tong.visitkorea.or.kr/cms/resource/72/2725472_image2_1.jpg
254,2,이코노미 해운대점,,35.16231841,129.1591135,,,,http://imgnews.naver.net/image/5025/2014/12/09/20141209010225_107603_1_99_20141209090603.jpg
255,2,호텔오즈,,35.2180802,129.0829352,,,,https://ldb-phinf.pstatic.net/20200801_81/1596242760949uqt7D_JPEG/XuYk5ezmH-u6v3InN0JcGVIu.jpg
256,2,코모도 호텔 부산,,35.10896375,129.0347507,,,,http://post.phinf.naver.net/MjAxOTEwMTRfNTYg/MDAxNTcxMDQyNDI3Njk0.E50GapqlSoB7Q9cUS5QEeB6JlNG2g-RKBN96jN3tyEEg.zhovno8BePJbrFT6ehCZ3hAfVtRU4mytrQJiigZNDdYg.JPEG/IQXDz-3YFGadYcZL6h_1yan7q1wA.jpg
257,2,더엠모텔,,35.15535189,129.1248278,,,,https://ldb-phinf.pstatic.net/20200422_185/15875614449412Bfeu_JPEG/gdFUXLwdyJa1jwvAHRcZezdP.jpg
258,2,브릿지모텔,,35.148708,129.1145594,,,,https://d2xf5gjipzd8cd.cloudfront.net/available/109529227/109529227_WxH.jpg
259,2,라마다 앙코르 바이워덤 부산해운대,,35.16331275,129.159644,,,,https://q-xx.bstatic.com/xdata/images/hotel/840x460/109906866.jpg?k=cd9b583bd3353617fc4ad6608c231ff25a0cd769813cb1eaf5776e81e9855b5f&o=
260,2,프리차(Preecha),,35.11617683,129.0341895,,,,https://images.trvl-media.com/hotels/21000000/20620000/20612900/20612877/2ab2fd46_z.jpg
261,2,라발스호텔 [한국관광 품질인증/Korea Quality],,35.09455434,129.0391369,,,,http://post.phinf.naver.net/MjAyMTA2MjlfNTQg/MDAxNjI0OTU3Nzk3NjUy._gzzgeHvx86n0yzA5b01DwiwDK0Uo3PNnwTutl_GGhAg.DVXunzaWHzjfsj6jojlbSzNnHLSgsjmvUPEQDdxOoxMg.PNG/IOyUE7A1j5D5UZN8mP7qvaActkTk.jpg
262,2,유토피아관광호텔,,35.16743928,129.117067,,,,https://dbscthumb-phinf.pstatic.net/3764_000_4/20150718162928364_NA8MJPOAA.jpg/GC042P27115.jpg?type=m4500_4500_fst_nce
263,2,부산 비치 관광호텔,,35.08501628,129.0262938,,,,https://www.hotelscombined.co.kr/rimg/himg/39/70/40/expediav2-319590-9637bf-781474.jpg?width=1366&height=768&crop=true
264,2,라비드아틀란호텔 [한국관광 품질인증/Korea Quality],,35.16116859,129.1615188,,,,http://tong.visitkorea.or.kr/cms/resource/33/2709433_image2_1.jpg
265,2,스타호텔,,35.15888479,129.1228056,,,,https://exp.cdn-hotels.com/hotels/5000000/4320000/4317100/4317026/4317026_32_z.jpg
266,2,THE B.S호텔(더비에스호텔) [한국관광 품질인증/Korea Quality],,35.12167632,129.040361,,,,
267,2,Enjoy Busan,,35.13909397,129.0484543,,,,https://mediaim.expedia.com/localexpert/1222942/20545f92-a14b-4495-a76e-97c7f5d984ce.jpg?impolicy=resizecrop&rw=1005&rh=565
268,2,모닝듀 게스트 하우스(모닝듀),,35.11414931,129.0364338,,,,https://ldb-phinf.pstatic.net/20170826_243/15036752712414Jxao_JPEG/qaA7keYIeCUbZr06MV017Ffv.jpg
269,2,잉카모텔,,35.16837407,129.0511755,,,,https://ldb-phinf.pstatic.net/20190325_56/1553473559246h4DXA_JPEG/ySwrMiwoYnbWjWfziGrUInod.jpg
270,2,더파크 게스트하우스(The Park Guesthouse)[한국관광 품질인증/Korea Quality],,35.15484348,129.1177812,,,,http://tong.visitkorea.or.kr/cms/resource/59/2557359_image2_1.jpg
271,2,La Casa del Sol (라까사델솔 게스트하우스),,35.1080052,129.0167912,,,,
272,2,센텀프리미어 호텔 [한국관광 품질인증/Korea Quality],,35.16695627,129.131613,,,,http://tong.visitkorea.or.kr/cms/resource/17/2725817_image2_1.jpg
273,2,그레이193호텔 [한국관광 품질인증/Korea Quality],,35.15401037,129.1245417,,,,http://tong.visitkorea.or.kr/cms/resource/64/2815964_image2_1.jpg
274,2,AJ하우스(AJ House),,35.09450707,129.0365232,,,,http://shop1.phinf.naver.net/20210901_102/1630481784593UqWkx_JPEG/31617564302111595_103590944.jpeg
275,2,비치모텔 [한국관광 품질인증/Korea Quality],,35.06939403,129.0809645,,,,https://cdn.visitkorea.or.kr/img/call?cmd=VIEW&id=d470020d-7320-44ef-bdd1-c9da9c774e11
276,2,하운드호텔 프리미어 남포(Hound Hotel Premier Nampo)[한국관광 품질인증/Korea Quality],,35.09915634,129.0253546,,,,http://tong.visitkorea.or.kr/cms/resource/45/2725645_image2_1.jpg
277,2,솔라리아 니시테츠호텔 부산 [한국관광 품질인증/Korea Quality],,35.15234266,129.0581864,,,,https://cdn.visitkorea.or.kr/img/call?cmd=VIEW&id=16af87a2-e1b5-4519-b352-22f0f68df19b
278,2,이그니스모텔(구 맨하탄모텔),,35.21818575,129.0829824,,,,http://tong.visitkorea.or.kr/cms/resource/69/1899069_image2_1.jpg
279,2,펠릭스바이STX [한국관광 품질인증/Korea Quality],,35.16300999,129.1584857,,,,http://tong.visitkorea.or.kr/cms/resource/55/2816255_image2_1.jpg
280,2,브이모텔,,35.07923629,129.0221693,,,,https://ldb-phinf.pstatic.net/20150901_16/1441068643807DOHmB_JPEG/SUBMIT_1360737832050_16568340.jpg
281,2,그랜드 조선 부산,,35.16010485,129.1631548,,,,http://post.phinf.naver.net/MjAyMTA0MjBfMjY2/MDAxNjE4ODg1MDYzNjc2._qx8vZNJhzhoBxqaf6jcbuWpgBH49JQS1EP8KV5Z7Q4g.FWu8-b_HWtFun6jM1FLWUQ-z0pnQlaexWUyYdq23lnYg.JPEG/IASRiVESH-HSb7maBvf89fJwAqwI.jpg
282,2,시그니엘 부산,,35.16110205,129.1684044,,,,https://a.travel-assets.com/ugc/hotel-reviews/6201CDDBBFA1D4505B5D82DD9204AE2B547400431626338851766.jpg?impolicy=rs&w=520
283,2,토요코 인 서면,,35.15798658,129.0640857,,,,https://d2xf5gjipzd8cd.cloudfront.net/reviews/1c4cd630ed45d0f5aed6fd80bd19364e/1c4cd630ed45d0f5aed6fd80bd19364e_WxH.jpg
284,2,센트럴파크 호텔[한국관광 품질인증/Korea Quality],,35.10055083,129.0359786,,,,https://cdn.visitkorea.or.kr/img/call?cmd=VIEW&id=b5ef189d-b091-4e53-bae8-ba2008dca95a
285,2,호텔얌 해운대점,,35.16062691,129.1575775,,,,http://tong.visitkorea.or.kr/cms/resource/74/2487774_image2_1.jpg
286,2,마마 게스트하우스 해운대점[한국관광 품질인증/Korea Quality],,35.16208796,129.1632798,,,,http://tong.visitkorea.or.kr/cms/resource/64/2636264_image2_1.jpg
287,2,스탠포드 인 부산,,35.09789268,129.0299598,,,,https://pix10.agoda.net/property/10585320/279921844/d6a0e9cf771206025df09ae042e8b086.jpg?ca=16&ce=1&s=1024x768
288,2,하운드호텔 부산역점 [한국관광 품질인증/Korea Quality],,35.11774625,129.0427526,,,,http://tong.visitkorea.or.kr/cms/resource/63/2803963_image2_1.jpg
289,2,지엔비호텔(GNB호텔)[한국관광 품질인증/Korea Quality],,35.10129499,129.0248352,,,,http://tong.visitkorea.or.kr/cms/resource/48/2808348_image2_1.png
290,2,엘리제모텔,,35.10099519,129.0340177,,,,http://post.phinf.naver.net/MjAxNzA3MDVfMTU5/MDAxNDk5MjQ4MzU4NTYx.2x-MRlBCRFsPCICdU2wVVNylpTqScd2PFcQ2usERTx0g.ejDzCgPGG3eZXncIqjtrfhI6zpWdqVhdqePWsvWB1VQg.JPEG/IcJetnjHH2hHz5fmFd3xEr01lYDk.jpg
291,2,아몬드호텔 [한국관광 품질인증/Korea Quality],,35.1138161,129.0406834,,,,http://tong.visitkorea.or.kr/cms/resource/80/2709380_image2_1.jpg
292,2,롯데호텔 부산,,35.15995007,129.0541782,,,,http://post.phinf.naver.net/MjAyMjAzMzBfMjY4/MDAxNjQ4NjMzMzYzNjA4.OAYG0cyC1uC_F9Xz4pzV8PHS_ZGvzLAJzKz1fO86hI4g.HtqwH3YR8BFE5gBnxzyS0bFd14pbuG5s3dPC--td1ywg.JPEG/IQo8d1y1f-1QAhtgoEyKX8FOwAUs.jpg
293,2,광장호텔,,35.11621584,129.0413666,,,,http://imgnews.naver.net/image/008/2015/08/30/2015082909495734971_1_99_20150830111511.jpg
294,2,초하루 게스트하우스,,35.14666099,129.1136817,,,,https://ldb-phinf.pstatic.net/20191231_290/1577760197232E3k9D_JPEG/tV-GYNtVcUYgDfb4WotBNln2.jpeg.jpg
295,2,미라벨모텔,,35.11367996,129.0384336,,,,http://tong.visitkorea.or.kr/cms/resource/92/1899092_image2_1.jpg
296,2,르이데아호텔[한국관광 품질인증/Korea Quality],,35.11214127,129.0401224,,,,http://tong.visitkorea.or.kr/cms/resource/94/2544694_image2_1.JPG
297,2,힐사이드호텔 [한국관광 품질인증/Korea Quality],,35.10924986,129.0359895,,,,https://cdn.visitkorea.or.kr/img/call?cmd=VIEW&id=6a72364d-1dde-4acf-99ce-5cef3fc3d436
298,2,방가방가게스트하우스(풍경집),,35.09708407,129.0097699,,,,http://shop1.phinf.naver.net/20220321_27/1647832317107e2mYL_JPEG/PF58232_9.jpg
299,2,비센트호텔[한국관광 품질인증/Korea Quality],,35.11079974,129.0393003,,,,http://tong.visitkorea.or.kr/cms/resource/11/2528811_image2_1.jpg
300,2,프라임관광호텔,,35.13059773,129.0502099,,,,https://www.hotelscombined.co.kr/rimg/himg/37/b0/b0/expediav2-644790-876fca-276385.jpg?width=720&height=576&crop=true
301,2,송도비치 관광호텔,,35.07464224,129.0155867,,,,https://dbscthumb-phinf.pstatic.net/3764_000_4/20150718164124785_CJSALXBZG.jpg/GC042P27270.jpg?type=m4500_4500_fst_nce
302,2,리베로호텔,,35.16244899,129.1612661,,,,https://ldb-phinf.pstatic.net/20170120_91/1484893756224izqif_JPEG/186070555936075_0.jpeg
303,2,브라운도트 민락점,,35.15401037,129.1245417,,,,https://modo-phinf.pstatic.net/20200908_90/15994923084131qvNR_JPEG/mosaAqn3TU.jpeg
304,2,파크 하얏트 부산,,35.15659373,129.141879,,,,https://img.theqoo.net/img/tMusq.jpg
305,2,호텔 농심,,35.22025494,129.0822825,,,,https://d2xf5gjipzd8cd.cloudfront.net/reviews/1fa48e14bbf93e403e7fa13d1beb5f47/1fa48e14bbf93e403e7fa13d1beb5f47_WxH.jpg
306,2,타워힐호텔,,35.1011924,129.034401,,,,https://thumbnails.trvl-media.com/6vpkEcHo5HqJcPUxqGoZtNBj4Yw=/773x530/smart/filters:quality(60)/images.trvl-media.com/hotels/7000000/6320000/6312700/6312685/c8e76374_z.jpg
307,2,송정호텔,,35.18110601,129.2030397,,,,https://dbscthumb-phinf.pstatic.net/3764_000_4/20150718081158706_0IUBRPEYD.jpg/GC042P20959.jpg?type=m4500_4500_fst_nce
308,2,팝콘 호스텔 해운대점,,35.16254072,129.1653074,,,,https://ldb-phinf.pstatic.net/20170406_71/1491472952778S53hq_JPEG/f23c5a93-7d9c-42fd-9203-be9f339dc00d.jpeg
309,2,라메르호텔,,35.14052462,129.0623197,,,,http://imgnews.naver.net/image/5350/2018/01/10/0000018571_001_20180110172325966.jpg
310,2,제스테이(제이스테이),,35.14879409,129.1140483,,,,http://shop1.phinf.naver.net/20220512_161/1652349029540lcUG5_JPEG/53484809264202048_1807638878.jpg
311,2,블루백팩커스호스텔,,35.15248426,129.0552978,,,,https://images.trvl-media.com/hotels/11000000/10010000/10007700/10007682/39115b04.jpg?impolicy=resizecrop&rw=598&ra=fit
312,2,베니키아 프리미어 해운대 호텔,,35.16226297,129.1648435,,,,http://post.phinf.naver.net/MjAyMDA5MDNfMjgg/MDAxNTk5MTA3OTQyMTM1.KxFje-iKVPfHar6QtUUPQulr3QfoD3o82n2F2cFbAYIg.xRDsE10eu6k3kkfMfgZxi4BivfgWwN2xnpoptwF9J8wg.JPEG/I1d3I6YDYxxvQmzrHQrb4hKyn95M.jpg
313,2,아이모텔(I 모텔),,35.20877417,129.0007899,,,,http://modo.phinf.naver.net/20160712_259/1468310246113e55Bk_JPEG/mosan6dqaq.jpeg
314,2,이비스 앰배서더 부산 시티센터,,35.16187222,129.0618719,,,,https://images.trvl-media.com/hotels/5000000/4680000/4672800/4672750/924f2789.jpg?impolicy=fcrop&w=1200&h=800&p=1&q=medium
315,2,옐로우라이트하우스,,35.15678524,129.134313,,,,https://ldb-phinf.pstatic.net/20200630_47/1593448946080rwO3s_JPEG/%B0%F8%BF%EB%C8%A62.jpg
316,2,브로시스 호텔,,35.09864539,129.0309291,,,,https://ldb-phinf.pstatic.net/20220524_127/16533764666361hjUo_JPEG/AE2O1130-%BC%F6%C1%A4.jpg
317,2,Nudge567,,35.17545375,129.1965182,,,,http://tong.visitkorea.or.kr/cms/resource/97/2700997_image2_1.png
318,2,더웨이브,,35.15509913,129.1241834,,,,http://image.kyobobook.co.kr/newimages/music/large/5194/2491599.jpg
319,2,캔버스,,35.1592353,129.1526891,,,,http://shop1.phinf.naver.net/20220223_281/1645599483718w3hDc_PNG/TB2Tx2XEVmWBuNjSspdXXbugXXa_756903724.png
320,2,JSTAY,,35.1488052,129.1140539,,,,https://pix6.agoda.net/hotelImages/241/2418969/2418969_17070519370054283057.jpg?s=800x
321,2,캔버스 블랙,,35.15941029,129.1530057,,,,https://i.pinimg.com/originals/09/73/49/097349fe09cad9fb44f4a0e7d06fd064.jpg
322,2,이바구캠프,,35.11920138,129.0285566,,,,http://imgnews.naver.net/image/082/2017/07/14/0000723892_001_20170714094607268.jpg
323,2,커플라운지 호스텔,,35.15477686,129.119956,,,,http://post.phinf.naver.net/MjAxODEyMjBfMjMy/MDAxNTQ1Mjk5MDkyMTU1.ztq-wXyNwtWoXzzGDWUZGKfbdVqZfoOSS1n10qIMhTQg.j5Z6r9G9Xcj8aPRkzyHJpBYkWLr5ZcYBOOBjJZ01l-Mg.JPEG/IKlq7eHmEIvMKpkSOiA7EdnocjKQ.jpg
324,2,The Park Guest House,,35.15487126,129.1177867,,,,https://www.nps.gov/common/uploads/cropped_image/primary/729A1143-A397-15D4-332CD08E92C2BB5D.jpg?width=1600&quality=90&mode=crop
325,2,그림하우스,,35.1729596,129.1974682,,,,https://modo-phinf.pstatic.net/20201205_190/160717496537004v9n_JPEG/mosaY4W6Xq.jpeg
326,2,펜트하우스,,35.17644808,129.1964459,,,,http://post.phinf.naver.net/MjAyMTAyMjZfMTMw/MDAxNjE0MzEyNzc5MzA3.UReZl757OXca-cEwmKY62PBK4SabZy0zdW9de7zNrCog.tzj3hE59UOGZRyS1SWpn44Sr4L2YKat5cnx2OzkGmzMg.JPEG/IpZ48Xh6kziQ3mT-GP5hiWn0Il1I.jpg
327,2,코인,,35.10951612,129.0157357,,,,https://images.unsplash.com/photo-1628498644037-fc1e28a1ea3e?ixlib=rb-1.2.1&raw_url=true&q=80&fm=jpg&crop=entropy&cs=tinysrgb&ixid=MnwxMjA3fDB8MHxjb2xsZWN0aW9uLXBhZ2V8MnxZd1pWeFJHdUdIa3x8ZW58MHx8fHw%3D&w=1000
328,2,BnB Busan Guesthouse,,35.14749318,129.0567061,,,,https://www.hotelscombined.co.kr/rimg/himg/e8/a1/b6/agoda-797099-349275927-334632.jpg?width=720&height=576&crop=true
329,2,보람게스트하우스,,35.19789579,129.0525357,,,,http://post.phinf.naver.net/MjAxNzA3MTFfMTE0/MDAxNDk5NzQ5MzM2NjA3.AUlkifYQfRAsLTmdbhhN1UrBaMw4jtlPgxAiMkHbmTsg.GHLRb5qBUa7CJPx8-61f4KnQnbnjnsEbNHRWMD4Q2r8g.JPEG/IEn9HX_wczHPRqIPq85n5GEo2Jko.jpg
330,2,싱글싱글,,35.11374659,129.0368393,,,,http://imgnews.naver.net/image/111/2008/11/06/1225945947242_1.jpg
331,2,에어비앤비 니하오 부산,,35.23428127,129.0887704,,,,
332,9,제이뷰호텔,,33.26477963,126.4165183,,,,https://ldb-phinf.pstatic.net/20220616_65/1655364690196oCWnC_JPEG/04.jpg
333,9,샤이니호텔,,33.47070996,126.7842817,,,,http://shop1.phinf.naver.net/20220512_263/1652332335375Tv6il_JPEG/53468181091283955_2071716837.jpg
334,9,뉴아일랜드 관광호텔,,33.48431485,126.4894292,,,,https://images.trvl-media.com/hotels/57000000/56550000/56546700/56546652/81b917e9.jpg?impolicy=fcrop&w=1200&h=800&p=1&q=medium
335,9,볕들이펜션,,33.46269662,126.9351688,,,,
336,9,JJ하우스,,33.26054786,126.4856513,,,,http://tong.visitkorea.or.kr/cms/resource/02/561502_image2_1.jpg
337,9,레이크힐스 제주리조트,,33.26730095,126.3768467,,,,http://img1.tmon.kr/cdn3/deals/2020/02/10/3064625978/original_3064625978_front_336f3_1581303243production.jpg
338,9,산들애풀하우스,,33.42982121,126.8572041,,,,https://a0.muscache.com/im/pictures/f33467d6-3081-449e-b1f0-ce65b0578b3c.jpg?aki_policy=large
339,9,메리어트관 제주신화월드 호텔 앤 리조트,,33.30500139,126.3163622,,,,http://tong.visitkorea.or.kr/cms/resource/17/2648517_image2_1.jpg
340,9,휘닉스 제주 섭지코지,,33.43025009,126.9280674,,,,http://post.phinf.naver.net/MjAyMDExMTNfMjU4/MDAxNjA1MjQ5NzAxODA4.9aLhJsVLqxkEOSN9J4EbsHjz2KZL10gPFd3wSQYvOXMg.pbucFPhrDpTEoZj6H2LBdN7UaC3JSx-u6OBb3WxhDtog.JPEG/Iu5rRZHo2_sqfg2QqRHKfOk3Z7sI.jpg
341,9,용산 제주유스호스텔,,33.2434492,126.4509463,,,,http://tong.visitkorea.or.kr/cms/resource/27/2498627_image2_1.JPG
342,9,제주알(R)호텔 [한국관광 품질인증/Korea Quality],,33.49942752,126.5179653,,,,https://cdn.visitkorea.or.kr/img/call?cmd=VIEW&id=91b3f331-6dd8-47d1-b864-c8f96e7196eb
343,9,제주에코스위츠[한국관광 품질인증/Korea Quality],,33.26541585,126.427759,,,,https://cdn.visitkorea.or.kr/img/call?cmd=VIEW&id=d1860519-42f5-43a2-817b-d1773b8d2cab
344,9,토비스콘도 제주,,33.4631616,126.3117313,,,,https://ldb-phinf.pstatic.net/20200403_10/1585893026539wJAS1_JPEG/2-3.jpg
345,9,오투힐리조트,,33.52811895,126.8737643,,,,https://ldb-phinf.pstatic.net/20211123_98/1637650848294oxID1_JPEG/KakaoTalk_20211015_162135058_08.jpg
346,9,제주 써니데이,,33.23962993,126.4358311,,,,https://modo-phinf.pstatic.net/20180411_80/1523426421354C4GUW_JPEG/mosa7O8tgE.jpeg
347,9,롯데시티호텔 제주,,33.49065577,126.4865516,,,,http://post.phinf.naver.net/MjAxOTEwMDdfMjEg/MDAxNTcwNDM5MTYwNzcw.tXNZ4mFxXi-NuYfaNqlStNjhjSnMhxSz-L5AVDeR5Usg.suMQEh2SR4i1yKLrL7ybP42ghFlJ6c6fyeXgBOxQ0d4g.JPEG/I3pQtrWBA46HaJcg7xr24JhnKuiA.jpg
348,9,제주바다산책,,33.27526647,126.7104398,,,,http://img.ezmember.co.kr/cache/board/2012/10/25/0e01f09b64aaa94d813595e5ef15f1ba.jpg
349,9,숲속의궁전,,33.25423485,126.497156,,,,http://modo.phinf.naver.net/20151004_40/14439494748063CFQS_JPEG/mosag6WaLc.jpeg
350,9,나.미.송,,33.43032524,126.41772,,,,http://imgnews.naver.net/image/5349/2019/05/15/1557905557_255149_20190515163422212.jpg
351,9,호텔 리젠트마린,,33.51753954,126.5266864,,,,https://images.trvl-media.com/hotels/14000000/13370000/13364300/13364220/8e1cf3ae.jpg?impolicy=fcrop&w=1200&h=800&p=1&q=medium
352,9,제주 라임오렌지빌,,33.2462316,126.5872539,,,,https://images.trvl-media.com/hotels/33000000/32530000/32527600/32527542/d99f167f.jpg?impolicy=fcrop&w=1200&h=800&p=1&q=medium
353,9,베이힐풀앤빌라,,33.23692646,126.3727671,,,,https://ldb-phinf.pstatic.net/20210304_232/1614832441912hyq0n_JPEG/UuShbHI0tXF0OZHLCehKbNBG.jpg
354,9,아망뜨펜션(제주),,33.30609239,126.8064363,,,,http://tong.visitkorea.or.kr/cms/resource/11/729211_image2_1.jpg
355,9,샘모루펜션,,33.25316271,126.4948867,,,,http://post.phinf.naver.net/MjAyMTAyMTZfMjY1/MDAxNjEzNDU2MTU3MzM1.OXHo91uBKAt5Cwebra1a6y3M_1MuTcnzMsbIA0BqwNgg.lduCoK1NS8zh4KWEJ1Egg07gLQQuFOW0jjSICdh5i3Ag.JPEG/Ihs41IXQbOWJ5pswXGFZmlwFotJ0.jpg
356,9,그린사이드,,33.25648324,126.4112189,,,,http://shop1.phinf.naver.net/20210607_177/1623056295058mjhcH_JPEG/24192129890135454_284457088.jpg
357,9,제주 하이랜드 펜션,,33.24230756,126.4452191,,,,https://modo-phinf.pstatic.net/20180504_268/15254115693127QN36_JPEG/mosaWlebiT.jpeg
358,9,스타즈 호텔 제주 로베로(구 로베로호텔),,33.51288721,126.522023,,,,https://images.trvl-media.com/hotels/12000000/11470000/11464300/11464278/6703cbe7.jpg?impolicy=fcrop&w=1200&h=800&p=1&q=medium
359,9,신세계호텔,,33.24471471,126.5623172,,,,http://imgnews.naver.net/image/5647/2018/10/02/0000001866_001_20181002180012043.jpg
360,9,WE호텔,,33.2860916,126.4439404,,,,http://post.phinf.naver.net/MjAyMTEyMjNfMTMy/MDAxNjQwMjI2Nzc4NjU4.fyWYNAmhRY5pmfvq5YF9cjnywDVXJI7J7ck2nF8VRjQg.J6MaOqJeBaqbvjHzlTu6lvB5Zo1glzD3nX_D-3JCAvIg.JPEG/IGNQ6iPV4ID7bSS16eKwfjyQGQJI.jpg
361,9,제주목화휴양펜션,,33.27581346,126.6994241,,,,http://mimg1.coupangcdn.com/thumbnails/remote/595/image/product/content/vendorItemPackage/2016/08/05/3013688877/d46cf54f-22cf-4e2e-8c64-1c7300051625.jpg
362,9,제주 오리엔탈호텔,,33.5176172,126.5198092,,,,http://tong.visitkorea.or.kr/cms/resource/40/1339840_image2_1.jpg
363,9,라사니아캐슬,,33.37351379,126.8727652,,,,https://mimg5.coupangcdn.com/thumbnails/remote/595/image/product/content/vendorItemPackage/2016/04/19/3005039875/6527482d-be50-43d4-ab77-27d66f7f6930.jpg
364,9,제주썬레이크빌,,33.46752351,126.9133678,,,,https://ldb-phinf.pstatic.net/20150831_280/14410153333334cR5t_JPEG/11670789_2.jpg
365,9,에코그린리조트,,33.43531436,126.2914864,,,,http://post.phinf.naver.net/MjAyMjAyMTdfMTAy/MDAxNjQ1MDcxMDU0NDc4.xG5EY1_w_JYMGaM-BPdp4r25DgL4ELv6ciPrhVxTwCEg.2q-Cr8MYHFmsYCgk2nCz1x5TPxz9rQQf6TGwqBfJvTsg.JPEG/IgSRz6FEMZY3urHqXevspm08Pvj8.jpg
366,9,뷰티풀하우스,,33.24374632,126.4466828,,,,http://tong.visitkorea.or.kr/cms/resource/28/729128_image2_1.jpg
367,9,서귀포KAL호텔,,33.24435393,126.5808073,,,,http://shop1.phinf.naver.net/20200705_208/1593907211956VD37I_JPEG/31270600447817270_646972891.jpg
368,9,스프링힐 리조트,,33.2509287,126.4368502,,,,http://tong.visitkorea.or.kr/cms/resource/32/1341432_image2_1.jpg
369,9,제주올리브,,33.27634694,126.7123257,,,,https://ldb-phinf.pstatic.net/20211010_19/1633817663939qGfVI_JPEG/image.jpg
370,9,제주 메이플호텔 [한국관광 품질인증/Korea Quality],,33.48652559,126.4817437,,,,https://cdn.visitkorea.or.kr/img/call?cmd=VIEW&id=96bec81f-602d-4223-a1f1-20e86531f967
371,9,까델아스 리조트,,33.47588884,126.3671845,,,,https://image-logo.alba.kr/%2Fdata_image2%2Fcomlogo%2F201701%2F2017010918361882042_0.jpg
372,9,조은리조트,,33.23579513,126.492004,,,,http://tong.visitkorea.or.kr/cms/resource/34/1339334_image2_1.jpg
373,9,씨에나펜션,,33.24213998,126.3857326,,,,http://img3.tmon.kr/cdn3/deals/2019/07/23/2281715882/original_2281715882_front_c46e5_1563870146production.jpg
374,9,서툰가족,,33.22821792,126.2980683,,,,https://ldb-phinf.pstatic.net/20170712_229/1499823543589KzB6t_JPEG/186662506921983_12.jpeg
375,9,제주바닷가하우스,,33.2122557,126.292108,,,,http://tong.visitkorea.or.kr/cms/resource/40/1933540_image2_1.jpg
376,9,그랜드 조선 제주,,33.25015886,126.4063028,,,,https://a.travel-assets.com/ugc/hotel-reviews/7B2EE79CD4DB4D75F2400217F9162D2B66D5BCC51655874331814.jpg?resize=360:*
377,9,금호리조트 제주,,33.27375263,126.7028238,,,,https://www.hotelscombined.co.kr/rimg/kimg/4a/ca/349a28295ac7cded.jpg?width=1366&height=768&crop=true
378,9,앙끄리에펜션,,33.26327698,126.4138213,,,,http://post.phinf.naver.net/MjAxODA0MjVfMjM0/MDAxNTI0NjU3NDM2NDk2.XNM6PgYKSplG_dcw45xybUdG-dTW51jaOHZ-koUqS6cg.IUKAPzSdSaOE-wp4DyaxZpI-A1ocaLdusgoOY9d1TaIg.JPEG/Id6S_3qlujKlUVoPHO8RqtcDaT8I.jpg
379,9,켄싱턴리조트 서귀포,,33.23354256,126.4890127,,,,http://post.phinf.naver.net/20160826_3/1472196039795BRyS6_JPEG/IEXQVJXNYZy_L4YcVrKDqM4BBQVM.jpg
380,9,청재설헌,,33.28915995,126.571757,,,,http://post.phinf.naver.net/MjAyMTExMjRfMTMy/MDAxNjM3NzQ5NzU1MTUz.DYBiMnGfTxCnyTgxUjLvklfal9nbCuvPCYAgcAkz-Log.rixvFhAuy-skkyRHE1DMKo3BZThtDJVAnDMNJ5hQboQg.JPEG/I8Y3g1rRvUUOUVtE0y_ukHM3u9es.jpg
381,9,물고기나무 게스트하우스,,33.37892657,126.8408706,,,,http://tong.visitkorea.or.kr/cms/resource/57/2417657_image2_1.jpg
382,9,꿈꾸는 노마드 [한국관광 품질인증/Korea Quality],,33.24167794,126.4996116,,,,http://tong.visitkorea.or.kr/cms/resource/47/2528547_image2_1.jpg
383,9,쿠지홀리데이 [한국관광 품질인증/Korea Quality],,33.40261879,126.8651429,,,,http://tong.visitkorea.or.kr/cms/resource/40/2811340_image2_1.jpg
384,9,푸른제주 펜션,,33.46598791,126.9345132,,,,https://ldb-phinf.pstatic.net/20200520_187/15899813781801PgRs_JPEG/f9cucD7jV1uw7SoFbFU8TzE7.jpg
385,9,아침의향기,,33.26559618,126.4144768,,,,http://post.phinf.naver.net/MjAyMjAxMjlfMjgg/MDAxNjQzNDUyNzcwOTI1.KJym1W1CITsTvHkz0OYhWbdtzZtj_tqhiQsoZSDk0xsg.HXfPYKXKWZmp5IuRm0uuZjzgYO9u0grDkmpCDyXKO60g.JPEG/IMcekYyxirWlJvxHfSSIMGYTcBs0.jpg
386,9,신라스테이 제주,,33.48551752,126.4910513,,,,http://post.phinf.naver.net/MjAxOTA5MThfMTM4/MDAxNTY4NzkwNzkyODgz.FJDe84qjYR0dJeP00NomaVcs7MpwuBqgNMGyi6zb00cg.2MJ2FGMzjA8TAK5Ri6CribrAkBzsPGv5jw5MU1ym6vcg.JPEG/I3Z-qlJqEfJihnTzjVDOQtrP70RI.jpg
387,9,노인과바다 펜션,,33.27508037,126.7099759,,,,https://a.travel-assets.com/ugc/hotel-reviews/s1173-p6caf01b0-b828-11e6-8476-2a1f32291a43-original.jpg?resize=360:*
388,9,밀레니엄빌,,33.24519287,126.5899537,,,,https://modo-phinf.pstatic.net/20180302_281/1519969979856nUqAD_JPEG/mosab2FVFi.jpeg
389,9,나인스파빌,,33.44539322,126.4301214,,,,https://content.r9cdn.net/rimg/himg/a4/5e/03/agoda-652147-652147_15060110470028144924-297074.jpg?width=720&height=576&crop=true
390,9,예이츠 산장,,33.3257536,126.6010592,,,,https://content.r9cdn.net/rimg/himg/30/cc/b8/hotelsdotcom-1041871584-0bd7c908_w-923815.jpg?width=1200&height=630&crop=false
391,9,끄라비 펜션,,33.27950577,126.5914111,,,,https://modo-phinf.pstatic.net/20170618_59/1497761299297yyWIw_JPEG/mosafGsgv6.jpeg
392,9,꼬뜨도르 호텔,,33.55218875,126.7168774,,,,https://images.trvl-media.com/hotels/22000000/21650000/21640200/21640183/eb36cd67.jpg?impolicy=fcrop&w=1200&h=800&p=1&q=medium
393,9,숨 게스트하우스 제주공항점,,33.50044402,126.5146572,,,,https://ldb-phinf.pstatic.net/20190610_300/1560147726188B70Ao_JPEG/KakaoTalk_20190307_153914243.jpg
394,9,카이로스,,33.44916177,126.4003239,,,,http://imgnews.naver.net/image/057/2020/10/26/0001512734_001_20201026153837813.jpg
395,9,블루스카이 펜션,,33.26072165,126.4101189,,,,https://t-ec.bstatic.com/images/hotel/max1024x768/103/103902702.jpg
396,9,라운지하우스 제주다,,33.22327949,126.2926827,,,,https://ldb-phinf.pstatic.net/20200619_293/1592551729339uMrV3_JPEG/uIeewM3OrS8hKIDSqGJsa0vC.jpg
397,9,히든 클리프 호텔 & 네이쳐,,33.2547583,126.4026058,,,,http://cdn.ppomppu.co.kr/zboard/data3/2016/0926/1474869556_AGUWgT6kD6.jpg
398,9,해뜨는집 펜션,,33.46912904,126.922542,,,,http://tong.visitkorea.or.kr/cms/resource/50/733350_image2_1.jpg
399,9,제주 지삿개풍경,,33.23985217,126.4382447,,,,http://tong.visitkorea.or.kr/cms/resource/53/1933753_image2_1.jpg
400,9,마레보 비치호텔,,33.44818536,126.3041378,,,,https://i.pinimg.com/originals/6a/25/e6/6a25e6300ea959e24d24ebb33055a206.jpg
401,9,플레이스 캠프 제주,,33.44988665,126.9182123,,,,http://post.phinf.naver.net/MjAyMTEyMjZfMTQy/MDAxNjQwNDUyMzQxNjM5.EyRMtcQgO9qIv6_i-cLJwbHxqPJY8GTUwGbMJJjLxnIg.ycg1kieC2gECjnhc_5UIQVMKbfz8TSbx5EMc1jAdKpYg.JPEG/Ix-3OIE4oDmnukK3QPs3NwjxdBHs.jpg
402,9,C&P리조트,,33.38995019,126.8308462,,,,https://media.gettyimages.com/vectors/-vector-id1003615090?s=2048x2048
403,9,제주 추억여행,,33.24240615,126.5322643,,,,http://post.phinf.naver.net/MjAxNzEwMjNfMjc5/MDAxNTA4NzU4NjY4NzQy.aOvcpl36mqz34RIQXp1E9wZQo80LkM3K3hYzM0IVy4Ig.cX6hBx0kTLEpHu1aFzrvJDM7ZBrASFVHKnZu9a4H-Gsg.JPEG/I8DYtWSkpGT2ikTnsmsUe_yg1hck.jpg
404,9,썬랜드 호텔,,33.48399822,126.4895709,,,,https://ldb-phinf.pstatic.net/20200929_275/1601364376446qNQuP_JPEG/q7DBmbp6621wDPhESH6PrwpI.jpeg.jpg
405,9,빌레리조트,,33.47115016,126.3469836,,,,https://ldb-phinf.pstatic.net/20201128_21/1606528580880g2iyH_JPEG/KakaoTalk_20201126_005936422_03.jpg
406,9,메종글래드 제주,,33.48563414,126.4889154,,,,http://shop1.phinf.naver.net/20210830_45/1630307818446tqMHN_JPEG/31443664158994923_51823876.jpg
407,9,롱비치펜션,,33.27538313,126.7107786,,,,http://post.phinf.naver.net/20160925_263/1474785660828HOxeL_JPEG/INTIOyp8EVpFPio0D3TNvv8YvVgI.jpg
408,9,하니크라운호텔,,33.50517148,126.5275532,,,,http://imgnews.naver.net/image/5267/2014/02/07/200297_98436_2338_59_20140207095802.jpg
409,9,제주캐슬펜션,,33.24122571,126.5312505,,,,https://modo-phinf.pstatic.net/20211204_6/163860093280476FDE_PNG/mosa64KLff.png
410,9,베니키아 중문호텔,,33.25190892,126.4223958,,,,https://images.trvl-media.com/hotels/12000000/11890000/11887800/11887741/50c49cd6.jpg?impolicy=fcrop&w=1200&h=800&p=1&q=medium
411,9,랜딩관 제주신화월드 호텔 앤 리조트,,33.30500139,126.3163622,,,,http://post.phinf.naver.net/MjAyMDAxMDNfODMg/MDAxNTc4MDE0NDc2MjM5.Okm8TrXocAX-JwEDcRbbafmKxGZWTGEKYQDtojoNiEAg.b3j6xAC_QsmvNGqjdP8QbSLJQkg_Bnur2zIiI6lBRoAg.JPEG/IgIzu6oIJ6D-KVMqEAjXm0V2oAY8.jpg
412,9,예래펜션,,33.25399168,126.400256,,,,https://ldb-phinf.pstatic.net/20171201_224/1512094929315xWQj6_JPEG/xCEd25D7XiMJabudCUUiYIoQ.jpg
413,9,제주 스위트호텔,,33.24907846,126.4083582,,,,https://a.travel-assets.com/ugc/hotel-reviews/EA0303CED3E86068F4692AE87248D2D66BFEAE0F1469358002596.jpg?impolicy=rs&w=520
414,9,제주 금강산콘도,,33.37958655,126.2502663,,,,https://mimg3.coupangcdn.com/thumbnails/remote/595/image/product/content/vendorItemPackage/2017/01/31/3013775052/a4cc97ac-6599-4393-8d44-d829c719f8fc.jpg
415,9,서머셋 제주신화월드,,33.30291831,126.3175482,,,,http://post.phinf.naver.net/MjAyMTA2MDlfMjIw/MDAxNjIzMjA5MzM4MTI1.1rTUaoMD_O4ZLzImFjRmWpy3CelyErSYFEQs04lR8fwg.cF0JGwTv654AkaC7lWF8KApPKiFHEvJzQaHu3_u9-hcg.JPEG/IgX7tucNzQwtP3YeLVvBf4rfcF74.jpg
416,9,귤익는마을,,33.34411112,126.8501206,,,,http://tong.visitkorea.or.kr/cms/resource/68/1933168_image2_1.jpg
417,9,엘린호텔 [한국관광 품질인증/Korea Quality],,33.48930328,126.4954619,,,,http://tong.visitkorea.or.kr/cms/resource/73/2596273_image2_1.jpg
418,9,틸다하우스  [한국관광 품질인증/Korea Quality],,33.31094949,126.2371217,,,,http://tong.visitkorea.or.kr/cms/resource/73/2491573_image2_1.JPG
419,9,라오체리조트,,33.23712561,126.4962675,,,,http://modo.phinf.naver.net/20151101_252/1446360705521O0Ilr_JPEG/mosafaa9Ja.jpeg
420,9,제주 그랑빌펜션,,33.25641942,126.4152741,,,,http://img.justgo.kr/hotel/domestic/900384/t_g001.jpg
421,9,사조리조트 제주,,33.55178305,126.7051312,,,,http://t1a.coupangcdn.com/thumbnails/remote/q65/image/product/image/vendoritem/2015/12/08/3004951643/a03b3f6a-9621-4bb1-9f21-efb21d2bf160.jpg
422,9,소노벨 제주,,33.54020879,126.6713316,,,,http://shop1.phinf.naver.net/20220124_220/1642962211080wyDHi_JPEG/44097994740609086_1749680415.jpg
423,9,애월해안누리(구 하얀둥지),,33.47056681,126.3416563,,,,http://tong.visitkorea.or.kr/cms/resource/70/2611070_image2_1.jpg
424,9,그림리조트,,33.51621432,126.503494,,,,http://imgnews.naver.net/image/5264/2019/04/10/150976_325833_5612_20190410175831158.png
425,9,제주이도펜션(구 제주펜트하우스),,33.25527629,126.4901454,,,,http://tong.visitkorea.or.kr/cms/resource/76/2438176_image2_1.jpg
426,9,제주아이브리조트,,33.28880601,126.4961303,,,,http://shop1.phinf.naver.net/20200809_258/1596964133274Xc2NW_JPEG/34325675918437703_1699727945.jpg
427,9,클럽다인리조트,,33.47147519,126.3512638,,,,http://tong.visitkorea.or.kr/cms/resource/21/1341521_image2_1.jpg
428,9,제주 칼 호텔,,33.50565197,126.5264922,,,,http://imgnews.naver.net/image/5334/2018/07/24/0000119205_001_20180724091101296.jpg
429,9,제주마중,,33.38925461,126.230365,,,,https://ldb-phinf.pstatic.net/20180118_291/1516279184377xtclE_JPEG/%C1%A6%C1%D6%B8%B6%C1%DF%C6%E6%BC%C7_%288%29.JPG
430,9,더쉼팡스파앤풀빌라,,33.31218056,126.8037087,,,,http://post.phinf.naver.net/MjAxODA3MDlfMTU1/MDAxNTMxMTExODc5MjQ1.luj5_n6Ti7_NPRrWYikMG-6xOYylQQ9flrENj843XIsg.135hriRFmPtl1C8HPOKQLSDtQjLaUA8ZjIlTqttl3BIg.JPEG/IVUu-CzaDqw1JvnhZF9b0xtAMSec.jpg
431,9,하와이관광호텔,,33.48313446,126.4914707,,,,http://post.phinf.naver.net/20160516_203/1463381980072Aqk8z_JPEG/Ic76HTJI3ocMtfKGuuATuUtYVB44.jpg
432,9,이어도성 펜션,,33.25507795,126.417935,,,,http://tong.visitkorea.or.kr/cms/resource/78/1933478_image2_1.jpg
433,9,씨에스 호텔&리조트,,33.24291821,126.419824,,,,http://post.phinf.naver.net/MjAxOTExMDVfMTU3/MDAxNTcyOTQxMTAxMDQ5.Yeuk0C-gURjj_avK8z76vSBxp_WUWJEUt8GKUeCACZUg.EiFhrHv7vdSfrsRFjpnRXyX16R8LffbcUoxI9hoVqM0g.JPEG/ItGgA7niSbmXVrkzF1xkRF0iNkm4.jpg
434,9,제주 펄 관광호텔,,33.48359273,126.4908986,,,,http://post.phinf.naver.net/MjAxOTAzMDhfMTIy/MDAxNTUyMDMzMjI3NDk2.FC_VqZfX7MqC6agldR42FDYerhDBIICwWMKH_R4RJVMg.sXTBKqaD-tZmK8yCmJJis-WjX4NBmPFa3wm0LUvrRKcg.JPEG/I7LFVCA7s2JT8qFCZYUg6n2rMY_E.jpg
435,9,스테리나잇 제주 [한국관광 품질인증/Korea Quality],,33.46220616,126.3122813,,,,
436,9,제주펜션 향림원,,33.24375697,126.5932118,,,,http://tong.visitkorea.or.kr/cms/resource/86/1933786_image2_1.jpg
437,9,담앤루리조트,,33.24588505,126.4515573,,,,http://post.phinf.naver.net/MjAxODAzMTVfNCAg/MDAxNTIxMDk3MzY4NDM0.SBv_4xFYKxIRIjrFD5J6qGG_eCsB6BE_IpatgLO6Aqkg.M7nOWAT8ZTEGUcrlSLIgEdzpuncMr1o9rmngasFonfEg.JPEG/IKAIHLTm8QXtfnf2AcSgEyT2rk9U.jpg
438,9,더 세리 호스텔 [한국관광 품질인증/Korea Quality],,33.24700532,126.5120659,,,,http://tong.visitkorea.or.kr/cms/resource/87/2529187_image2_1.jpg
439,9,베니키아 홈 더 제주리조트,,33.37837837,126.2513107,,,,https://q-xx.bstatic.com/xdata/images/hotel/840x460/91896922.jpg?k=c4c19e66f138eac60d30b9d77ffd6b85c835fb255b608479020cb87b351a0890&o=
440,9,비치스토리호텔 [한국관광 품질인증/Korea Quality],,33.54209737,126.6653432,,,,https://cdn.visitkorea.or.kr/img/call?cmd=VIEW&id=4006a946-e23e-41cf-a038-73fb04e4c2de
441,9,씨오르리조트,,33.24249481,126.5185572,,,,https://a.travel-assets.com/ugc/hotel-reviews/AA3C2EE4E5F11E04202C61E1A8B03EC39F3E25E81630657060075.jpg?resize=*:270
442,9,샤뜰레 펜션,,33.24839155,126.5288645,,,,https://modo-phinf.pstatic.net/20200316_136/1584332413356uaOsW_JPEG/mosatjlqG5.jpeg
443,9,비스타리조트,,33.50306782,126.4575927,,,,https://dynamic-media-cdn.tripadvisor.com/media/photo-o/09/30/89/91/caption.jpg?w=1200&h=-1&s=1
444,9,제주로얄호텔,,33.4885172,126.4916706,,,,http://mimg2.coupangcdn.com/thumbnails/remote/595/image/product/content/vendorItemPackage/2015/09/30/3001524158/1c688d28-8ab2-45ea-bbfe-3079e13d2436.jpg
445,9,동박생이,,33.55847539,126.7927873,,,,https://thumbnails.trvl-media.com/_ZwNL4QmZ-jS88XwCYYNWMNdmpo=/773x530/smart/filters:quality(60)/images.trvl-media.com/hotels/16000000/16000000/15993800/15993765/ae69e097_z.jpg
446,9,소노캄 제주(구 샤인빌 리조트),,33.30604217,126.792907,,,,http://img4.tmon.kr/cdn4/deals/2021/11/12/6570537250/original_6570537250_front_f3570_1636684707production.jpg
447,9,루체빌리조트,,33.3199036,126.3851809,,,,https://www.kayak.co.kr/rimg/himg/16/7d/c0/revato-832767-11777202-504658.jpg?width=1366&height=768&xhint=1620&yhint=988&crop=true
448,9,제주향,,33.26286314,126.4139241,,,,http://shop1.phinf.naver.net/20211028_146/1635430615270E0Oid_JPEG/36566503968539174_2063468840.jpg
449,9,제주 스카브로호텔,,33.2341295,126.3699424,,,,http://post.phinf.naver.net/MjAyMDExMTJfMzkg/MDAxNjA1MTYxNzY5MzI1.cluilOc2kLsKdKv0fsnIkBlqZCw7s4G48YuJZjXO6NQg.ZT3EdPH4yP_GUAz9CKJxtk7u_N8mZ9b4BTPQBJlEoEEg.JPEG/I6TZkaCiQ3SDk0arUzTKYd4_kpnc.jpg
450,9,관음사가는길펜션,,33.43754884,126.5544691,,,,https://modo-phinf.pstatic.net/20180315_76/1521099464967llADL_JPEG/mosaX6F1Py.jpeg
451,9,바다에누워 펜션,,33.26968847,126.6578361,,,,http://post.phinf.naver.net/MjAxNzEwMjNfMjQ3/MDAxNTA4NzQwNzU2NjM2.6y1sX3cb3rcMQZx2O9vkQkr7nDIwF0N2pAwFspupTYMg.NFfwFSN1voLNtwTARXHoHeGCrvRdkPFaLx82PL-n_0Ug.JPEG/I9j0HlpB6BHZoW8EvR8Y5iiKjakk.jpg
452,9,서귀포 귤림성,,33.25031923,126.5360194,,,,https://mimg1.coupangcdn.com/thumbnails/remote/595/image/product/content/vendorItemPackage/2015/10/20/3002506662/66d5d4b4-7134-4e7a-a451-2bd9883e103a.jpg
453,9,라헨느리조트,,33.45228151,126.6152468,,,,http://img.justgo.kr/hotel/domestic/901140/t_1207%EC%95%BC%EC%99%B8%EC%88%98%EC%98%81%EC%9E%A5.jpg
454,9,보물섬펜션,,33.4664517,126.9317051,,,,https://ldb-phinf.pstatic.net/20210517_22/1621233017332HDism_JPEG/nM9glPg3veP2Tv3G6UlpW6kc.jpg
455,9,한화리조트 제주,,33.44885725,126.6380671,,,,http://post.phinf.naver.net/MjAxNzA4MDVfMTY3/MDAxNTAxOTA5NzEwODQ3.RLP8HVKO_pXaBQGhIeVHYPo5UhPUoy5KbIdKuAng_xIg.THB9jhNbcU7n_7j7q859lze9NZ0Ldb-LrisOKP0gbesg.JPEG/I5JGEmch4PMOAl37NvocVPMGELx4.jpg
456,9,오션하우스,,33.23483404,126.3101893,,,,https://ldb-phinf.pstatic.net/20170703_100/1499057007178dX2aQ_JPEG/186653537346032_0.jpeg
457,9,제주카사블랑카,,33.27053909,126.5281279,,,,https://modo-phinf.pstatic.net/20220530_6/1653904503552L9ezs_JPEG/mosa5gpHt9.jpeg
458,9,제주 마리나,,33.49333342,126.4972256,,,,http://mimg4.coupangcdn.com/thumbnails/remote/595/image/product/content/vendorItemPackage/2016/03/18/3011387323/d2805a9f-6705-43c2-964e-0f71c6a8b1da.jpg
459,9,티파니에서 아침을,,33.30502433,126.712189,,,,https://img.theqoo.net/img/adyru.jpg
460,9,하얀언덕,,33.31152001,126.8339727,,,,https://ldb-phinf.pstatic.net/20210312_296/1615528677893umzs2_JPEG/IMG_20180923_192413.jpg
461,9,제주 펜션 포시즌(Fourseason),,33.24861461,126.5835097,,,,http://post.phinf.naver.net/MjAxNzA4MjNfMjc0/MDAxNTAzNDk0ODg1OTE5.ihcGvIhMeTueUVcbdhVOwZ_DtLnSDolGLwJMXDatlswg.ebV3HIRZVZ82yqL74pMpvhr2MAVLChKDImnsWmEQCzgg.JPEG/IJdR8IYmaPx529uoTnKvQeE_BHGA.jpg
462,9,제주해안휴양펜션,,33.22732637,126.2995348,,,,https://pix10.agoda.net/hotelImages/886071/-1/2b648399960ebb79c2ad130b32fcfc23.jpg?ca=8&ce=1&s=768x1024
463,9,가름게스트하우스,,33.23658703,126.5123384,,,,https://ldb-phinf.pstatic.net/20150901_270/1441051134031lzj71_JPEG/SUBMIT_1373865142082_20468533.jpg
464,9,제주 씨에코비치,,33.54823529,126.647203,,,,https://pix10.agoda.net/hotelImages/961/961957/961957_15062514460030811534.jpg
465,9,제주올레하우스,,33.51333293,126.7784507,,,,https://ldb-phinf.pstatic.net/20220107_268/1641514771748PPmDc_JPEG/30-9.jpg
466,9,제주 신신휴양펜션,,33.27917366,126.314349,,,,https://ldb-phinf.pstatic.net/20171128_182/15118466427417tlcQ_JPEG/__3.jpg
467,9,솔바람풍경소리,,33.29053723,126.7244355,,,,https://images.trvl-media.com/hotels/24000000/23280000/23272500/23272415/594843f1_z.jpg
468,9,제주신라호텔,,33.24800358,126.4087304,,,,https://dnvefa72aowie.cloudfront.net/origin/article/202203/4b0d2069120ab9ac324e666cc55c373ceeac4703077d3becc7e078f561b8f824.webp?q=95&s=1440x1440&t=inside
469,9,미도모텔,,33.46417699,126.9336078,,,,https://ldb-phinf.pstatic.net/20200429_127/15880876603289TFn0_JPEG/5Sf4bbubwYkyjmZEe-ZDqhcc.jpg
470,9,해비치호텔,,33.32151352,126.8447466,,,,http://post.phinf.naver.net/20160512_52/1462980186182kbsv5_JPEG/Iax3LqkX0AyRs1Zq2nzg6JBLRbV4.jpg
471,9,후아힌제주 풀빌라,,33.47368891,126.3561355,,,,https://cdn.ppomppu.co.kr/zboard/data3/2019/0416/20190416193300_phrrbhfr.png
472,9,제주팔레스호텔,,33.51690623,126.523695,,,,http://tong.visitkorea.or.kr/cms/resource/30/2712530_image2_1.jpg
473,9,비울채울,,33.24927297,126.5896342,,,,http://tong.visitkorea.or.kr/cms/resource/04/1905804_image2_1.jpg
474,9,팜밸리리조트,,33.25917309,126.4907675,,,,https://ldb-phinf.pstatic.net/20180927_200/15380220492110xdgC_JPEG/%BC%F6%BF%B5%C0%E5-8.jpg
475,9,제주 뉴오션리조트,,33.46949477,126.3455949,,,,https://a.travel-assets.com/ugc/hotel-reviews/F91FE4DB9B99877673A9B18846CB4258A1D15C4A1643795335026.jpg?resize=360:*
476,9,함덕삼다펜션,,33.54277785,126.6649015,,,,http://post.phinf.naver.net/MjAxNzEyMjdfNzgg/MDAxNTE0Mzc5MzY1MDQ1.UaJVDVdldYHVzcTKAaVFoWMOgrwkb1FlPvSTIXMQgUcg.ku4AkMtK1_fm5ZcX13RFaDoAbKI7oWJYmxKuDyoqlPcg.JPEG/I_09mjVT1KvEnqq3HRga4TFup-rg.jpg
477,9,바다하우스,,33.46651994,126.3358485,,,,https://modo-phinf.pstatic.net/20190821_30/15663913950044h7jQ_JPEG/mosab2u1UA.jpeg
478,9,프레리아펜션,,33.42548947,126.405049,,,,https://ldb-phinf.pstatic.net/20191208_194/1575800605298P724o_JPEG/4.jpg
479,9,소랑호젠,,33.27583299,126.7052513,,,,https://mp-seoul-image-production-s3.mangoplate.com/433123/638412_1616832808751_13571
480,9,노을담은뜨락,,33.25629369,126.190377,,,,https://thumbnails.trvl-media.com/9OLvLB_IhEeirIXIw-5iBxwPtXk=/773x530/smart/filters:quality(60)/images.trvl-media.com/hotels/38000000/37830000/37829800/37829711/8efec933_z.jpg
481,9,제주애 펜션,,33.38522095,126.8801643,,,,https://ldb-phinf.pstatic.net/20200625_146/1593072380293f6Ji9_JPEG/OajdY4mfr-Dt8cn0148XI_kT.jpg
482,9,오션스위츠 제주호텔,,33.51837273,126.5231255,,,,http://post.phinf.naver.net/MjAyMjAzMzFfNTUg/MDAxNjQ4NzI3MjY5OTc3.W1LRutRv-YI_ERHReTTp3N79tCNIHFgpJj8lxsdUrfEg.iv0t59ehm4CCf11RJ_IT3ZxNv9nG7L7j6s0Okw5SGmIg.JPEG/Ij6gO_WCz5noSPYqdp-k4a-qUz7g.jpg
483,9,다람쥐민박,,33.5406392,126.6653099,,,,https://ldb-phinf.pstatic.net/20181231_59/1546221630940PKCRo_JPEG/HHdw_vXzeEz8AsaBswG2SJBA.jpg
484,9,제주 퍼시픽 호텔,,33.51069295,126.5188733,,,,https://a.travel-assets.com/ugc/hotel-reviews/372D454308D7134C1D0750369D42C97B843DB1411595761829968.jpg?resize=360:*
485,9,벤티모,,33.49345835,126.4937564,,,,https://ldb-phinf.pstatic.net/20210127_50/1611714129833A0DqJ_JPEG/%C0%A5%BF%EB%BD%BA%C5%C4%B4%D9%B5%E5_%C6%D0%B9%D0%B8%AE%C6%AE%C0%A9_%BF%C0%BC%C7%BA%E41.jpg
486,9,밀라노모텔,,33.24398148,126.5638199,,,,https://ldb-phinf.pstatic.net/20220226_4/1645886200222M863d_JPEG/20220122_170246.jpg
487,9,THE BAY 제주리조트 (더베이 제주리조트),,33.2412267,126.5934979,,,,https://pix10.agoda.net/hotelImages/546/546635/546635_16020111450039528386.jpg?ca=6&ce=1&s=1024x768
488,9,월드와이드 유스호스텔,,33.43553878,126.4321992,,,,http://imgnews.naver.net/image/5179/2013/08/24/193776_138390_950_59_20130824182718.jpg
489,9,카이 호스텔,,33.39212669,126.2413195,,,,http://post.phinf.naver.net/MjAxNzA2MzBfMjA4/MDAxNDk4ODE5NzMzNzU4.BTgGJLOljXNcCIkcIyRzbFdsvRgtqk67RElxwVDS6RAg.MxJMUHuEtwcx5krfykDz8KLczsJCo4PY1iEtu5BebQIg.JPEG/INFpXCWOSKQprzBtrP92bdJAn30I.jpg
490,9,오션그랜드호텔제주,,33.54258898,126.6651876,,,,http://post.phinf.naver.net/MjAxNzA3MDlfMTcg/MDAxNDk5NTMxNzI1OTc3.Wfs305nx1gZAOXNfXRpwpQmF4DUIBfMzfcsVSYkqcrIg.IVvmFvAXQWfVGrK1opgUigBJMkKZAGg2HDOtof87jcUg.JPEG/I-FcSPWBhs__VGo-1-aHmmoQL2A0.jpg
491,9,라마다프라자 제주호텔,,33.51883649,126.518151,,,,http://imgnews.naver.net/image/5267/2020/12/02/0000183369_001_20201202111125518.jpg
492,9,나인브릿지콘도,,33.34040164,126.4042621,,,,https://fastly.4sqi.net/img/general/600x600/19208862__0KuorO9ITjtQZ0Awh-qat6rA7CsmF1a7gF_guErCyM.jpg
493,9,포도호텔,,33.31369603,126.39,,,,http://imgnews.naver.net/image/382/2017/03/23/83468473.2_99_20170323135302.jpg
494,9,타미우스골프&빌리지,,33.34829492,126.3856635,,,,http://coresos.phinf.naver.net/a/331ech/f_0b4Ud018svc1cfd4q6qe1yr4_2wcscy.jpg
495,9,도라미 휴양펜션(도라미 관광 휴양펜션),,33.26028041,126.6095211,,,,https://cdn.visitkorea.or.kr/img/call?cmd=VIEW&id=c04fe15a-a68f-4ded-ae34-671289c299e4
496,9,쉴띠 휴양펜션,,33.27285016,126.3654364,,,,
497,9,브릭216,,33.24087714,126.443447,,,,http://t5a.coupangcdn.com/thumbnails/remote/q65/image/product/image/vendoritem/2016/06/08/3013641352/68089a0a-48ad-4cde-8b84-227c1e01e1c1.jpg
498,9,고망난돌민박,,33.35311858,126.8578558,,,,https://ldb-phinf.pstatic.net/20171127_296/1511761743047FoyCy_JPEG/006.jpg
499,9,킴스캐빈,,33.47448898,126.8866922,,,,http://post.phinf.naver.net/20160908_187/1473294959740i59eV_JPEG/IJCxjRRQijgTE5CZkhAuZQopjN68.jpg
500,9,펠리스타운,,33.47448099,126.9081015,,,,http://post.phinf.naver.net/MjAxODA0MDdfOTcg/MDAxNTIzMTA0NzQwNTM1.Eg7iZ_kokXQjtEVrDqOm_sB8DgWWPFR2Db0nMywQC04g.hjyYyXghqE8JBAYLFZIXg8Gnpc0dj6jCgmPH0IhKpsog.JPEG/IFpQ5reVG9_pgJhB7WkndL02Ikys.jpg
501,9,호텔제이엠(HotelJM),,33.4903975,126.4887597,,,,
502,9,더럭펜션,,33.45048569,126.3414706,,,,http://post.phinf.naver.net/MjAxOTA3MDJfMTcw/MDAxNTYyMDQ5OTA4NTMz.VV7uUx3zIOa932uxsNN7vGlPWw2R1EoZ8vtURRdVK4gg.73eRCiEl5nOUO3KOFAzDa6EIhMBOUmJEq_LC7z-WdUwg.JPEG/IKYkPR7cgcGKRWFuaaoMU4aYOS2c.jpg
503,9,파밀리아,,33.2409826,126.4380142,,,,http://post.phinf.naver.net/MjAxOTA3MTVfMTg0/MDAxNTYzMTU0MTEwMjAy.Lktk3fziM01ZKeg6iepjgwcPrirewRXPlVG6-rn5uKog.CPRo_DasuRrHJGm28Qr74YSr_3_hJRQX_n-TrkO23_8g.JPEG/I_LdxqHkYtL26hk9FRacqbPb9Gcg.jpg
504,9,제주 블랙스톤 호텔,,33.33779493,126.3124118,,,,http://post.phinf.naver.net/MjAyMTExMzBfMjI2/MDAxNjM4MjQxNzYyODc4.R-scAp0FrWb89aRnXJDiuUvJAZUR88y-Mg4x-AmWeBsg.tv_3SXtw55yOZxHKo_8NyyWLXRgx05_ct9xj0k3et6Eg.JPEG/I1eq3aErNO20YPlTMEKmIwuAUTLw.jpg
505,9,중문훼미리리조트,,33.26603175,126.3836544,,,,https://ldb-phinf.pstatic.net/20170821_98/1503308200649yi5xv_JPEG/2AhBCJi-2gYTtx55tzwmhrSX.jpg
506,9,메모리 인 제주,,33.25718721,126.4916453,,,,https://static.lottedfs.com/contents/images/prd-cnmt-img/20191125/20000421435/2019112511242026850a7614102c7314e99a75e89abcd70255c.png
507,9,드림캐슬,,33.2806608,126.7404954,,,,http://post.phinf.naver.net/20160601_265/1464745417941VeADe_JPEG/InKq8WmtD-R5MrTofXMYq40QNpo0.jpg
508,9,샤론의집,,33.43060425,126.8441691,,,,https://modo-phinf.pstatic.net/20200424_17/1587718544879oSi6s_JPEG/mosaRAiSGS.jpeg
509,9,취다선리조트(취다선 리조트 Tea&Meditation),,33.47187857,126.9127178,,,,http://imgnews.naver.net/image/5411/2020/12/10/0000002361_016_20201211105824670.jpg
510,9,와이리조트 제주(Y RESORT JJ),,33.24263346,126.327857,,,,https://www.hotelscombined.co.kr/rimg/himg/eb/dc/ca/expediav2-466711-361e80-930234.jpg?width=1200&height=630&crop=true
511,9,라온호텔 앤 리조트,,33.37970582,126.2396172,,,,http://post.phinf.naver.net/MjAxODA1MzBfNzcg/MDAxNTI3Njc0MDcwOTUy.CbE_zDhSr2BSIFfH6_wQOQFShY8oNDCgHRKlTXjal1sg.184n9s73yTxUO8vIk2KirmMLTrSFUvnVbORJei86Mrcg.JPEG/IvZOzOh9yv9vJBX5QthkXQxKCb54.jpg
512,9,제주메이더호텔,,33.55199139,126.7066671,,,,https://d2xf5gjipzd8cd.cloudfront.net/available/332905236/332905236_WxH.jpg
513,9,베니키아 호텔 제주,,33.47730251,126.3628348,,,,http://img3.tmon.kr/cdn4/deals/2021/12/29/9471451730/original_9471451730_front_3463f_1640747721production.jpg
514,9,켄싱턴리조트 제주한림,,33.4358196,126.2744935,,,,http://post.phinf.naver.net/MjAxODA0MThfMzEg/MDAxNTI0MDM5OTA3MDYz.8mz_iS4Rk19figgUnxd_ctVfYAloMeS8ecbdRTM8n1cg.qCtf4GZqgP0Bir2esED_fnA4m3JZask0OgWptwz4SuYg.JPEG/IACwrcjsBLM9nt-_2lz36pMEzA8k.jpg
515,9,롯데호텔 제주,,33.24871464,126.4105247,,,,http://post.phinf.naver.net/MjAxNzExMzBfMjY4/MDAxNTEyMDE0MjQ1NDI2.QdmgZp2bGhlCwW739mGRl9Q2JdY4FN4v6sQNrCbVtfgg.8rqMxZGIypPmhrkZdagGxwrb4JKbxoBt0yVBBefUq84g.JPEG/IZCuaKEHd9KLM5v8E9Lm6PagQdpY.jpg
516,9,제주오션팰리스호텔,,33.24597568,126.5623255,,,,https://a.travel-assets.com/ugc/hotel-reviews/986ABC7AFB1E13957A983A8BC54DA12A47365F001654666562198.jpg?resize=360:*
517,9,코델리아리조트,,33.45910217,126.91011,,,,https://images.trvl-media.com/hotels/10000000/9700000/9698300/9698266/1a6a99de.jpg?impolicy=fcrop&w=1200&h=800&p=1&q=medium
518,9,제주 캐슬렉스 골프텔,,33.33837043,126.3487281,,,,http://imgnews.naver.net/image/5526/2019/02/02/0000048837_001_20190202155626574.jpg
519,9,해비치리조트,,33.32151352,126.8447466,,,,http://tong.visitkorea.or.kr/cms/resource/01/2720301_image2_1.jpg
520,9,호텔레오,,33.48975312,126.4882625,,,,https://images.trvl-media.com/hotels/10000000/9210000/9202700/9202642/2c0435ef.jpg?impolicy=fcrop&w=1200&h=800&p=1&q=medium
521,9,호텔 서귀피안,,33.24442074,126.5905592,,,,https://ldb-phinf.pstatic.net/20210730_212/1627623678489P91Fm_JPEG/k-47q8e3FSa24iPgSfVpUSC3.jpg
522,9,솔트,,33.46703656,126.3363346,,,,https://dnvefa72aowie.cloudfront.net/origin/article/202207/221544d6f186c67bd36c701a6272e89bfc9fa64f92623518c3ad665e614b69e0.webp?q=95&s=1440x1440&t=inside
523,9,제주브릭스,,33.24464207,126.5357834,,,,https://a.travel-assets.com/ugc/hotel-reviews/CF08618D755DAD7B53D5BD40027DB96C074CAF451609550542646.jpg?impolicy=rs&w=520
524,9,천지연크리스탈호텔,,33.24237329,126.5620756,,,,https://images.trvl-media.com/hotels/17000000/16020000/16010600/16010524/80121222.jpg?impolicy=fcrop&w=1200&h=800&p=1&q=medium
525,9,해성파크텔,,33.25231164,126.421357,,,,https://ldb-phinf.pstatic.net/20210906_1/1630895980873awRp0_JPEG/uSBH37BbCTJ12ia-bDxJqzYJ.jpg
526,9,칠십리호텔,,33.24721164,126.5612422,,,,https://ldb-phinf.pstatic.net/20190531_91/1559267135984Xq9aO_JPEG/A5Acg6C50XzYz-f7nVvk1BsQ.jpg
527,9,오션힐스테이,,33.23680325,126.3088144,,,,http://post.phinf.naver.net/MjAyMTA4MjRfMjc4/MDAxNjI5NzY4MTE1NjI1.ACYRxFVecShrpYXDQQ5TKf4QhqzoWxiKUSooVlbyZksg.w9YYFmPGOwoifveeOyLKugxyq23IrYMjDkmuCmuI9p8g.JPEG/IR0LGx7j9VgmCe6tBhTn1v-D6XOQ.jpg
528,9,엠제이호텔,,33.48904487,126.4884153,,,,https://d2xf5gjipzd8cd.cloudfront.net/available/112508950/112508950_WxH.jpg
529,9,엠버리조트,,33.423616,126.4890612,,,,https://www.hotelscombined.co.kr/rimg/himg/e9/dd/fa/revato-1239414-13052562-805833.jpg?width=720&height=576&crop=true
530,9,나이스호텔,,33.48300314,126.4423834,,,,http://post.phinf.naver.net/MjAxODA1MjBfMTcz/MDAxNTI2NzczODg4OTcx.0aGCdBRVk5t5jhEYMkEztxrtTRXTW7oKjUyvY-K8k-sg.fXD4jvWeRLil-bfYZ7YUQgmvt2sgdgZG1hN6pn7rKdAg.JPEG/IPBGEpzwRrU3ybSLolE9zbgEV_2c.jpg
531,9,까사 데 비발디,,33.23414215,126.2905188,,,,https://a.travel-assets.com/ugc/hotel-reviews/3D592B6D453DA9A05F28524B429F3CAF772F52061616055198884.jpg?impolicy=rs&w=520
532,10,NS호텔(엔에스호텔),경상남도 창원시 성산구 용지로 78 남선상가5층,35.2227944403,128.6769427283,"NS호텔(엔에스호텔)은 2015년 8월 남선호텔에서 명칭을 바꾸었다. 구 남선호텔의 접근성은 살리며 더욱 편리하게 이용할 수 있도록 리모델링 되었다. 깔끔한 인테리어, 깨끗한 방, 안락한 침구 등 거품을 제거하고 꼭 필요한 편의시설, 서비스를 엄선하여 준비되어 있다.",16:00,12:00,http://tong.visitkorea.or.kr/cms/resource/41/2708641_image2_1.jpg
533,10,호텔인터내셔널,경상남도 창원시 성산구 중앙대로 69,35.2218112239,128.6773010572,"호텔 인터내셔널은 1989년 경남 창원에 국제호텔로 오픈하여, 경남지역 관광호텔의 선봉에서 지하 4층 지상 9층의 호텔로 1997년 재 개관을 하여 경남 최고의 호텔로 거듭났으며, 400대의 주차공간과 컨벤션 홀 및 각종 레스토랑, 사우나, 등 고객들의 여독을 풀고 내일의 활력을 찾을 수 있는 비즈니스 호텔이다.
컨벤션 홀과 7개의 소연회실, 각종 레스토랑과 웨딩 홀, 사우나를 중심으로 하루의 피로와 내일의 활력을 위한 각종 부대시설을 골고루 갖춘 호텔 인터내셔널은 전통과 현대가 어우러진 멋으로 새로운 휴식과 만남의 장이 될 것이다.",14:00,12:00,https://ldb-phinf.pstatic.net/20210214_239/1613294736341M0vbW_JPEG/cpMvAJxpdaVwCo6hIyvalYgx.jpg
534,10,창원호텔,경상남도 창원시 성산구 중앙대로39번길 14,35.2201835818,128.6747179926,"창원호텔은 국제공업도시인 창원시 중앙에 위치하고 있어 도청, 주요 기관, 공단 등의 방문이 용이함은 물론, 각종 비즈니스를 위한 최적의 장소로 창원호텔을 찾는 모든 고객에게 최고의 시설과 서비스를 제공하고 있다. 고객 맞춤 서비스를 지향하는 창원호텔은 비즈니스와 휴식을 함께 즐길 수 있도록 객실을 새롭게 단장하였다.<br>173개의 객실로 초고속 유, 무선 인터넷은 물론 디지털 TV, 고객의 취향에 맞게 선택할 수 있는 히노끼욕조와 샤워부스, 객실 내 대여금고 등 다양한 객실 시스템과 사우나, 피트니스룸, 세탁실 무료 운영으로 차별화된 고객 맞춤 서비스가 제공된다. 또한, 최대 500명을 수용할 수 있는 대형 세미나, 리셉션, 대형 이벤트, 웨딩 등 어떤 모임에도 잘 어울리는 완벽한 장소를 제공한다.<br><br>(정보제공자: 창원시청)",14:00,12:00,http://post.phinf.naver.net/MjAxOTA4MDRfNTIg/MDAxNTY0OTIzOTU2NTE5.NUMRylMkuQ5imLOAWIS54kccwxzUhbtM9fTMRgVS0GIg.xwLMynu9NT7IdzOIPZHliudNQ0UC4LFkufoaS5SelIEg.JPEG/IUCozSAouaPPBvRkDxwOcbyD-MZk.jpg
535,10,사과나무관광호텔,경상남도 창원시 마산합포구 가포신항북로 16,35.1687403282,128.5753169506,"창원 사과나무 호텔은 마산 가포의 전망좋은 호텔이다.
(정보제공자: 창원시청)",,,http://imgnews.naver.net/image/5181/2017/11/16/0000881558_001_20171116164652849.jpg
536,10,아몬드관광호텔,경상남도 창원시 마산합포구 월영동11길 19(해운동),35.1806610271,128.5651064109,"아몬드관광호텔은 창원 마산합포구 해운동에 위치한 호텔이다.
(정보제공자: 창원시청)",,,https://ldb-phinf.pstatic.net/20171103_241/1509699780898LzkwN_JPEG/ce0ajHXtffILBX71f8oef9_q.JPG.jpg
537,10,마산 아리랑 관광호텔,경상남도 창원시 마산회원구 마산역광장로 24,35.2346940783,128.5777399639,"경남 정치, 경제, 문화의 중심지 마산에 위치한 마산 아리랑 관광호텔은 마산역, 터미널, 종합운동장 등이 인접해 교통의 편의성이 뛰어나 비즈니스와 쇼핑, 관광에 최적화된 경남을 대표하는 호텔이다. 푸른 남해의 아름다운 경관과 군항제를 비롯한 다양한 축제의 매력을 느낄 수 있다.
마산 아리랑 관광호텔은 고품격으로 멋스럽게 꾸며진 다양한 객실과 대형 주차장을 완비하고 있다.
(정보제공자: 창원시청)",14:00,11:00,http://imgnews.naver.net/image/5202/2017/10/24/0000134101_001_20171024100514990.jpg
538,10,크라운관광호텔,경상남도 창원시 의창구 창원대로363번길 22-5,35.2378504117,128.6400510996,"CROWN HOTEL은 CR(CENTER)과 OWN(자신의, 소유하다)의 합성어로 자신이 중심이 되는 자기만의 공간을 가지다라는 의미를 지니고 있다. 평범하지만 특별한, 고객의 감성을 풍요롭게 하는 소신이 담겨있는 WELL 비즈니스 호텔이다.<br>차로 약 5분 거리에 근린공원인 창원시어린이교통공원과 삼동공원이 있어 쾌적한 주변 환경을 자랑하고 무빙보트를 즐길 수 있는 용지호수공원까지는 차로 약 10분거리에 상상길까지는 차로 약 19분거리에 있다.<br>(정보제공자: 창원시청)",15:00,12:00,http://tong.visitkorea.or.kr/cms/resource/25/1805525_image2_1.jpg
539,10,갤러리 마중(GALLERY MAJUNG),경상남도 창원시 진해구 충장로445번길 5(이동),35.1495308342,128.6987178062,#본 업소는 외국인관광 도시민박업으로 외국인만 이용이 가능하며 내국인은 이용할 수 없습니다.<br><br>진해 소재 게스트하우스이다.,16:00,11:00,
540,10,(주)마산관광호텔,경상남도 창원시 마산합포구 수산1길 285(오동동),35.2060668587,128.5844151516,마산관광호텔은 수련한 마산항을 앞뜰삼아 마산의 참 맛을 느낄 수 있는 호텔의 이미지를 지키고 있다. 객실과 콘도형 객실 그리고 간단한 식사와 주류를 즐길 수 있는 펍 시설을 갖추고 있다.,14:00,12:00,http://image-logo.alba.kr/%2Fdata_image2%2Fcomlogo%2F202207%2F2022070114063230014_0_m.jpg
541,10,(주)올림픽호텔,경상남도 창원시 성산구 중앙대로 81,35.2225361545,128.6779509809,"경제적이고 합리적인 가격, 푸근하고 넉넉한 서비스, 내 집 같은 편안함의 기업이념을 바탕으로 전 임직원들이 정성을 모아 고품질의 서비스를 제공하고 있다. 특히 비즈니스 관계로 창원을 방문하시는 고객과 생활체육, 문화, 공연관계로 올림픽 관광호텔을 찾은 고객을 위해 세심한 배려를 아끼지 않고 있다.
(정보제공자: 창원시청)",14:00,12:00,http://imgnews.naver.net/image/001/2016/07/25/AKR20160725023300007_02_i_99_20160725080225.jpg
542,10,리츠 호스텔,경상남도 창원시 성산구 용지로 64덕산그린피아 4층(중앙동),35.2216917699,128.6760400592,"리츠호텔은 늘 가깝고 평안한 공간으로 방문객을 초대한다. 청결, 친절 그리고 믿음으로 정성을 다하고 있다. 고객을 최우선으로 생각하며 고객만족을 위해 최선의 노력을 다하고 있다.
(정보제공자: 창원시청)",12:00,12:00,https://images.trvl-media.com/hotels/22000000/21360000/21350200/21350170/6a599c9b.jpg?impolicy=fcrop&w=1200&h=800&p=1&q=medium
543,10,베스트루이스해밀턴호텔 창원점,경상남도 창원시 성산구 마디미로70번길 10,35.2195726491,128.6807730367,"창원에 위치한 숙박 시설인 베스트루이스해밀턴호텔 창원은 부산에서 35km거리에 있다. 숙소 전역에서 무료 와이파이가 제공된다. 구내 레스토랑도 이용가능하다. 구내에 무료 전용 주차장이 마련되어 있다.<br>각 객실은 평면 tv와 커피 머신을 갖추고 있다. 각 객실의 전용 욕실에는 비데가 구비되어 있다. 목욕 가운, 슬리퍼 등도 제공된다.<br>(정보제공자: 창원시청)",,,https://d2xf5gjipzd8cd.cloudfront.net/available/881792783/881792783_WxH.jpg
544,10,아모르관광호텔,경상남도 창원시 진해구 명제로472번길 17(제덕동),35.10064822,128.7424042031,"아모르관광호텔은 2017년 6월에 완공된 호텙로 깨끗하고 쾌적한 객실환경을 자랑한다. 하늘정원의 야외풀장 및 카페 등 다양한 편의시설을 갖추고 있으며, 고객들의 다양한 니즈를 만족시키려 노력하고 있다.
(정보제공자: 창원시청)",15:00,12:00,http://post.phinf.naver.net/MjAyMDA1MjZfMjUy/MDAxNTkwNDQ4NDg0Mzcw.x8YWdlmjuQBbteTIIgGSsfoFc0DaumZh1kHJxtEdiK8g.jlmLbbPfcLoiHHmzFRCAkJ5bt2VSCa-4jFTkFaF23KUg.JPEG/IN1k1q_CbGxNxmyoR64gzJ0Pcpu8.jpg
545,10,에비뉴관광호텔,경상남도 창원시 의창구 용지로169번길 5,35.2301520309,128.6815282398,"호텔에비뉴는 글로벌기업 및 주요 관공서, 세코 컨벤션 센터, 롯데백화점, 대형 마트 등 비즈니스 및 여행 계획을 세우기 위한 최적의 입지조건을 갖추고 있는 동시에 조용한 환경과 호숫가의 좋은 전망을 갖춘 호텔이다. 또한 김해 국제 공항과 35분, 창원 중앙역과는 5분 거리에 위치하여 교통이 편리하다.
(정보제공자: 창원시청)",15:00,12:00,http://post.phinf.naver.net/MjAxODEwMDRfMjc3/MDAxNTM4NjE1MDAzNzQz.rHFqqAyv2Z8Cav-NOPJthQ3yg_3cJE702CuohB2EnKQg.LZoU6NSd6npHGTJE7t1BvkZ7rTj0dR7YY487waB2-Jsg.JPEG/IzJWA1FvFa5YQZMQFKF9MwJEpujY.jpg
546,10,게스트하우스 리좀,경상남도 창원시 마산합포구 동서북14길 244층 (동성동),35.2091496495,128.5735799046,"#본 업소는 외국인관광 도시민박업으로 외국인만 이용이 가능하며 내국인은 이용할 수 없습니다.<br><br>창원시 마산 창동에 위치한 복합문화예술공간 에스빠스 리좀의 4층에 위치한 게스트하우스 리좀은 창동예술촌에서 국제 예술인 레지던스 프로그램 중 예술인들의 숙소로 사용하던 곳을 게스트하우스로 리모델링하여 운영하고 있다. 창동 예술촌, 부림 공예촌, 상상길 등과 함께 어시장, 부림시장 먹자골목 등에 근접해 있어 예술적 상상과 문화적 향유가 쉽게 이루어질 뿐만 아니라 먹거리, 볼거리, 쇼핑거리 등 모든 편의 시설들도 가까운 주변에 즐비한 곳이다.",14:00 (22시 이후 체크인 하시는 분은 꼭 미리 연락),11:00,https://images.trvl-media.com/hotels/23000000/22280000/22276900/22276889/955e2b93.jpg?impolicy=fcrop&w=1200&h=800&p=1&q=medium
547,10,스페이스 우분투,경상남도 창원시 진해구 여명로 29-1(여좌동),35.1589984063,128.6541131099,"#본 업소는 외국인관광 도시민박업으로 외국인만 이용이 가능하며 내국인은 이용할 수 없습니다.

에어비앤비 슈퍼 호스트로 선정된 스페이스 우분투는 여행객의 쉼터이자 정보를 공유할 수 있는 공간이다.",15:00,11:00,https://ldb-phinf.pstatic.net/20181110_61/154181535412447b1C_JPEG/KeeDfARshN5VrNIM8tvEt3x2.jpeg.jpg
548,10,까미노(Camino) bnb,경상남도 창원시 성산구 반송로81번길 37(반지동),35.2426003363,128.6652043289,"#본 업소는 외국인관광 도시민박업으로 외국인만 이용이 가능하며 내국인은 이용할 수 없습니다.<br><br>창원 컨벤션 센터와 차로 5분 이내의 거리에 있으며, 창원 버스 터미널과는 차로 10분 이내의 거리에 있다. 숙소에는 정원과 테라스가 있다. 전 구역에 무료 Wi-Fi를 갖추고 있으며, 각 객실에는 에어컨과 전기담요가 있다. 일부 객실에는 평면 TV, 소파 및 발코니가 있다. 욕실에는 헤어드라이어와 샤워 시설이 마련되어 있다. 세탁 서비스를 제공하며 공용 주방과 공용 라운지를 갖추고 있다.",15:00,11:00,http://tong.visitkorea.or.kr/cms/resource/09/2571609_image2_1.jpg
549,10,호텔38.5도씨[한국관광 품질인증/Korea Quality],경상남도 창원시 진해구 충장로82번길 15(송학동),35.1510133171,128.6610904935,"진해시외버스터미널에서 약 1km 거리에 위치한 호텔38.5도씨는 쾌적한 시설과 가성비 좋은 숙소로 인기가 높다. 벚꽃 명소인 여좌천과 경화역 벚꽃길을 승용차로 각각 5분, 10분이면 갈 수 있어 봄철이면 특히 많은 여행자가 모여든다(2020년 3월 현재 코로나19로 벚꽃축제장 폐쇄). 진해근대역사테마거리, 진해중앙시장 등은 500m 거리로 걸어서 골목 여행을 즐기기에 이만한 곳이 없다. 객실은 스탠더드, 프리미엄, VIP38.5, VVIP SKY 등 4가지 타입으로 총 41개가 마련되어 있다. 벽돌, 화사한 벽지 등으로 인테리어를 차별화한 객실에는 티테이블과 의자, 전기포트, 냉장고, 옷걸이, 욕조 등 기본 시설이 깔끔하게 갖춰져 있다. VIP38.5룸은 샤워실과 화장실이 분리되어 더욱 편리하게 이용 가능하다. 퀸베드와 싱글베드, 소파가 있는 VVIP SKY룸은 가족 여행객이 머물기 좋다. 호텔38.5도씨의 장점 중 하나는 널찍한 장애인용 객실과 장애인용 엘리베이터, 시각장애인을 위한 안내블록을 갖춘 것이다. 사전 요청 시 휠체어도 빌려준다. 이 외에 세미나실, 카페테리아, 공용 PC와 프린터를 마련해 비즈니스 고객도 편히 머무를 수 있도록 했다. 조식은 유료이며 수프, 샐러드, 토스트, 과일, 시리얼 등이 나온다(2020년 3월 현재 코로나19로 조식 제공 중지).",16:00,12:00,https://ldb-phinf.pstatic.net/20220113_77/16420547865921HGQQ_JPEG/3.jpg
550,10,그랜드시티 호텔[한국관광 품질인증/Korea Quality],경상남도 창원시 성산구 중앙대로 78(상남동),35.2215279553,128.6791092398,"KTX 창원중앙역에서 승용차로 8분 거리에 위치한 그랜드시티 호텔은 ‘Memorable Stay’를 슬로건으로 내건 비즈니스호텔이다. 내부 인테리어를 환한 색감과 자연친화적인 소재로 마감해 편안하고 캐주얼한 느낌을 준다. 슈페리어, 디럭스, 디럭스 스위트로 구성된 357개 객실은 널찍한 규모와 효율적인 공간 구성으로 여정의 피로를 풀기에 더없이 좋다. 그레이와 화이트톤이 차분하게 조화를 이룬 슈페리어룸은 바깥 풍경을 마주한 채 업무를 볼 수 있도록 창가에 기다란 테이블을 놓은 점이 눈에 띈다. 디럭스룸은 널찍한 업무용 데스크와 미니바, TV, 소파를 효율적으로 배치해 공간을 넓게 사용할 수 있도록 했다. 유러피언 스튜디오 스타일의 디럭스 스위트룸에는 회의가 가능한 업무 공간이 잘 갖춰져 있다. 트윈룸을 제외한 모든 객실에는 넉넉한 킹사이즈 침대가 놓여 있어 안락한 잠자리를 제공한다. 비즈니스 고객의 편리한 업무를 위해 빔프로젝터와 노트북PC를 갖춘 비즈니스센터를 24시간 운영하며 투숙객은 2시간 무료 이용이 가능하다. 이 외의 부대시설로는 도심 풍경이 보이는 피트니스센터, 옥상정원, 레스토랑이 있다. 프런트에서 영어, 일본어, 중국어로 응대가 가능해 외국인 투숙객도 편리하게 이용할 수 있다.",15:00,11:00,http://tong.visitkorea.or.kr/cms/resource/56/2732056_image2_1.jpg
551,10,AT비지니스호텔 [한국관광 품질인증/Korea Quality],경상남도 창원시 성산구 용지로 102 개나리종합상가(중앙동) 5층,35.2245192728,128.6783758898,"AT비지니스호텔은 창원시청에서 도보 10분 거리에 있는 호텔이다. 숙소는 비지니스호텔이라는 이름에 더없이 충실하다. 공용 컴퓨터와 프린터를 무료로 쓸 수 있는 비지니스존, 중요한 회의 전에 옷매무새를 가다듬을 수 있는 공용 스타일러, 장기 출장객을 위한 세탁실을 갖춰 창원으로 업무 출장을 온 이들을 살뜰히 배려했다. 호텔의 서비스도 훌륭하지만, 포털 사이트에 별 다섯 개 평점이 줄을 잇는 또 다른 이유는 격무에 시달리는 코로나19 의료진을 위해 숙박을 무료로 제공한 사장님의 훌륭한 인품이 입소문이 났기 때문이다.
총 26개 객실은 스탠다드 더블과 디럭스 더블, 디럭스 트윈, 주니어 스위트, 총 4가지 타입으로 군더더기 없이 깔끔한 디자인이 돋보인다. 비지니스를 끝마친 후에는 달콤한 휴식이 필요한 법. 모든 객실에서 넷플릭스와 유튜브를 무료로 볼 수 있어 업무로 쌓인 긴장이 풀린다.",14:00,12:00,http://tong.visitkorea.or.kr/cms/resource/79/2808479_image2_1.png
552,10,마산m호텔,경상남도 창원시 마산합포구 해안대로 367,35.2037281461,128.5796517423,"마산m호텔은 마산만이 내려다 보이는 전문 비즈니스호텔로 지상 15층 규모로 편안한 객실과 대형 로비, 비즈니스센터, 디자인센터, 웨딩숍, 웨딩홀, 국제행사를 진행할 수 있는 연회장, 노래주점, 음식점, 편의점 등 각종 부대시설과 최근 객실 리뉴얼로 편안한 숙박을 위해 최선을 다하고 있다.",14:00,12:00,https://exp.cdn-hotels.com/hotels/25000000/24070000/24062100/24062041/389b9ecc_z.jpg
553,10,그랜드 머큐어 앰배서더 창원(구 풀만 앰배서더 창원),경상남도 창원시 성산구 원이대로 332,35.2393394091,128.6551886257,"세계적 명성을 자랑하는 ACCOR계열 호텔, 풀만 앰배서더 창원이 ""그랜드 머큐어 앰배서더 창원 (Grand Mercure Ambassador Changwon)""으로 새로운 도약을 한다.<br>브랜드 가치를 전달하는, 차별화된 고객중심 서비스로 고객님을 모시고 있다. 경남의 랜드마크인 City7 Mall과 CECO 창원 컨벤션 센터와 나란히 인접하고 있어 다양한 대규모 국제행사를 유치할 수 있다. 또한 세련되고 현대적 감각의 321개의 객실의 안락한 침대와 최신식 시설의 부대시설, 그리고 전통적인 향기를 느낄 수 있는 주변 창원의집등을 포함한 문화적 공간들은 레저 여행객과 비즈니스 여행객에게 이상적이다. 방문하시기에 김해 국제공항과 40분, KTX창원역/ 창원중앙역과는 10분 거리에 위치하여 교통이 매우 편리하다.<br><br>(정보제공자 : 창원시청)",14:00,12:00,http://tong.visitkorea.or.kr/cms/resource/49/1209749_image2_1.jpg
554,10,북면황토방온천장,경상남도 창원시 의창구 북면 천주로1170번길 17-10,35.3539451933,128.6123337123,"경상남도 창원시에 위치한 북면황토방온천장은 지팡이를 짚고 왔다 버리고 돌아가는 온천이라는 수식어가 붙을 만큼 수질이 뛰어난 온천이다. 입구에 들어서면 넓은 로비와 대기실이 바로 보이며, 넓고 쾌적한 객실과 주차시설 등을 다량 보유하고 있어 온천을 즐기며 안락하게 머물다 갈 수 있다. 또한 온천 시설은 24시간 운영되고 있어 언제 어느 때라도 이용이 가능하며 숙박 손님은 무료로 이용 할 수 있다. 인근에 주남저수지와 백월산 등이 있어 온천과 더불어 둘러 볼 거리도 많다.<br>",12:00,12:00,http://tong.visitkorea.or.kr/cms/resource/08/819908_image2_1.jpg
555,11,아이스퀘어호텔,경상남도 김해시 김해대로 2360,35.2260673247,128.8851272492,"아이스퀘어호텔은 경남 최고의 휴식과 문화의 장소로 각광 받고 있다. 김해공항과 인접해있어 비즈니스 고객에게도 안성맞춤인 아이스퀘어호텔은 지하 3층, 지상 16층 규모를 자랑하며 세련된 181실의 객실과 최대 900명까지 수용 가능한 그랜드볼륨, 200명까지 수용 가능하 콘서트홀, 150명까지 수용 가능한 클래식홀을 비롯한 대·소 연회장을 고루 갖추고 있다. 호텔 지하 2층에 위치한 피트니스는 회원들의 건강, 휴식을 위한 공간이며 더 나아가 사교를 통한 중요한 인맥형성의 공간을 제공한다.  
아이스퀘어호텔은 김해시청에서 500M 떨어진 부원동 역세권 지구에 위치해 있으며 복합 쇼핑 및 여가 문화 복합 단지인 아이스퀘어 몰과 연결 되어 있다.",15:00,12:00,http://r-ec.bstatic.com/images/hotel/840x460/607/60764556.jpg
556,11,김해 유아인(you a in),경상남도 김해시 인제로170번길 9-9,35.2442684246,128.9049194707,아름다운 문화와 역사가 살아숨쉬는 곳 김해의 인제대 앞에 위치한 호텔 유아인은 젊은 감각의 세련된 빈티지한 인테리어로 손님들에게 인기가 많다.<br>호텔 앞 먹거리촌에서는 다양한 음식점들을 만날 수 있다. 김해는 철의 왕국 가야의 도시로 다양한 유적지를 둘러 볼 수 있으며 봄에는 가야문화축제도 성대하게 열린다.,18:00,13:00,http://imgnews.naver.net/image/277/2020/08/30/0004745746_001_20200831135221547.jpg
557,11,김해 넘버25호텔,경상남도 김해시 김해대로2529번길 72-22\,35.2347889109,128.9037642749,"김해 넘버25호텔은 동김해IC 2분거리다. 경전철 인제대역 도보가능하다. 가야테마파크, 가야CC, 가야랜드 차량 5분거리다. 낙동강 레알파크 20분거리다. 롯데아울렛, 롯데 워터파크 차량 20분거리다.",18:00,12:00,https://ldb-phinf.pstatic.net/20190402_1/1554193885856nDQxg_JPEG/YmhdDKrm9G8NiGwydMpwVeWN.jpg
558,11,무척산관광예술원,경상남도 김해시 생림면 안양로358번길 38,35.38373767,128.8394658113,기존의 한옥을 중심으로 전통한옥을 계속 복원하고 농장을 연계하여 전통 문화와 농업농촌이 만나 만들어진 무척산 관광 예술원은 방문객들이 생활 활력소를 찾고 자연의 소중함을 느끼며 삶의 여유를 얻을 수 있다.,13:00,11:00,https://ldb-phinf.pstatic.net/20210807_74/16283196563662vuWT_JPEG/KakaoTalk_20210805_122321888_02.jpg
559,11,개리비안비치펜션,경상남도 김해시 대동면 대동로 536-15,35.2430337205,128.9738301635,"개리비안비치는 애견인과 반려견이 함께 최고급 시설과 최상의 서비스를 즐길 수 있는 테마파크이다. 대지 2000평 규모의 넓은 애견 운동장을 비롯하여 사계절 온수가 나오는 애견 수영장, 쾌적하고 안락한 애견호텔, 고급 셀프목욕시설, 누구나 편안히 이용할 수 있는 카페테리아까지 다양한 서비스를 한 번에 즐길 수 있는 국내 최고의 반려견 테마파크이다.",15:00,11:00,http://tong.visitkorea.or.kr/cms/resource/70/2604470_image2_1.jpg
560,11,김해한옥체험관[한국관광 품질인증/Korea Quality],경상남도 김해시 가락로93번길 40,35.2344023464,128.8767110891,"김해 한옥체험관은 우리나라의 전통 문화와 한옥의 운치를 고스란히 느낄 수 있는 한옥 체험 숙소이다. 안채, 사랑채, 별채에 마련된 객실은 저마다 특징이 달라 취향에 따라 선택할 수 있다. 안채에 마련된 객실은 고가구와 방석, 편지꽂이, 등잔 등 전통 소품으로 장식해 옛 선조들의 일상을 엿볼 수 있다. 널찍한 대청마루는 회의실로 이용 가능하다. 사랑채 객실은 안채에 비해 아담하고 소박하지만 소파와 테이블이 놓인 누마루가 있어 바깥 풍경을 즐기며 휴식을 취하기 좋다. 김해한옥체험관에서 가장 고풍스러운 객실은 별채에 자리한 월파실과 함허실이다. 객실에 들어서면 커다란 병풍이 둘러쳐진 전통 보료(앉는 자리에 늘 깔아두는 두툼한 요)가 눈길을 사로잡는다. 사극에서 봤음직한 옛날 방 풍경을 그대로 옮겨놓은 듯하다. 전통 한옥이지만 모든 객실에 TV, 냉장고, 에어컨, 현대식 화장실을 갖춰 편리함을 더했다. 때때로 전통 체험 프로그램을 운영하며 외국인 여행객을 위해 영어, 일본어 안내 서비스를 제공한다.",17:00,11:00,http://tong.visitkorea.or.kr/cms/resource/97/2688897_image2_1.jpg
561,12,환타지아콘도,경상남도 양산시 하북면 통도7길 68,35.4985348155,129.0823886334,"통도환타지아는 고객들에게 항상 꿈과 희망을 주는 부산/경남권 최대의 ‘Family Leisure Park’이며, 늘 푸른 자연과 함께 하는 'Theme Park‘이다.
국내 최대 규모의 롤러코스터인 환타지아 스페셜, 꾸준히 고객들로부터 사랑을 받고 있는 회전목마, 바이킹, 관람차, 온 가족이 호수를 배경으로 즐기는 호수 여행 등 약 20여 종의 놀이기종이 환상의 세계로 안내하고 있다.
한국의 4대 명찰 중의 하나인 통도사와 영남의 알프스라 불리는 영축산의 수려한 경관이 어우러진 통도환타지아는 탈도심 나들이객들로부터 대자연 속 명소로 각광받고 있다.
체류형 주요 시설인 통도환타지아 콘도는 2008년 11월에 오픈한 이래 고객들로부터 아주 좋은 호응을 얻고 있다. 다양한 타입의 객실을 보유하고 있고 부대시설로는 대형 연회장, 세미나실, 레스토랑, 오락실, 편의점 등을 운영하고 있다.",15:00,11:00,https://dbscthumb-phinf.pstatic.net/2818_000_1/20151211072550715_HHHX3CC0H.jpg/1337120_image2_1.jpg?type=m4500_4500_fst
562,12,오디오정원 펜션,경상남도 양산시 원동면 어실로 1511,35.4500103085,128.9647085957,"오디오정원 펜션은 신불산 영축산의 남쪽 알프스와 밀양의 천황산재약을 잇는 서쪽 알프스 사이의 이십리에 뻗친 협곡으로 일조량이 다른 지방보다 2시간 이상 짧기 때문에 여름에도 냉기가 감돈다. 고봉들 사이에 있는 배내골은 유난히 골이 깊어 때묻지 않은 자연의 모습을 그대로 간직하고 있어 깊은 산자락에서 맑고 깨끗한 계곡물이 흘러내려 개울가의 물소리를 자장가 삼아 잠을 청할 수 있는 아름다움이 있는 곳이다.
영롱한 새소리 물소리 천초만화가 손짓하고 태산 같은 침묵도 버틸 수가 없을 때 이곳에서 가족모임 직장 모임 등을 가지기에는 하나도 손색이 없을 낭만의 집이다.",14:00,11:00 비수기<br />10:00 성수기,http://tong.visitkorea.or.kr/cms/resource/12/2535212_image2_1.JPG
563,12,더밸리펜션,경상남도 양산시 원동면 장선2길 53,35.4995636409,128.9955961892,"영남알프스라 불리는 푸름이 숨 쉬는 배내골, 그 속에서 예쁜 파란 지붕집 펜션이 있다. 펜션 뒤 오솔길을 따라 산책을, 연인들은 인공호수에서 데이트를, 친구들과 족구와 바비큐 파티를 할 수 있다.",15:00,11:00,https://modo-phinf.pstatic.net/20190614_29/1560491662551GfrlS_JPEG/mosaM51VfL.jpeg
564,12,다인촌,경상남도 양산시 원동면 청수골길 14,35.5211531119,129.0081694902,"천 미터가 넘는 고봉들 사이를 흐르는 배냇골의 중심 자락에 자리 잡은 이색펜션이다. 펜션 바로 앞으로 배냇골계곡이 흐르고 뒤로는 신불산 휴양림과 파래소폭포 가는 길이 이어진다. 다인촌은 외경이 아주 독특하다. 순 국내산 소나무와 황토만으로 지어진 전통 한옥이어서다.
본채와 행랑채는 초가집이고 본채는 기와집이다. 기둥과 서까래도 곧은 나무가 아니라 휘어진 나무 본래의 모습 그대로다. 다인촌의 촌장은 부산의 향토 서예가인 예문호씨, 자연의 기막힌 조화에 반하여 20년 동안 익힌 서예, 문인화 작품 전시를 통해 지역문화 창달에 힘쓰며 후학양성에도 힘을 기울고자한다.",14:00,11:30,http://shop1.phinf.naver.net/20211225_2/1640411682233EnBAw_JPEG/41547527927904677_1058239149.jpeg
565,12,유플러스 모텔,경상남도 양산시 북안남1길 4,35.3441179606,129.0354164594,"유플러스 모텔은 2013년 3월 리모델링 되어 깔끔하고 편안한 숙박시설을 제공한다. 객실 내 편의시설로는 초고속 인터넷, Wi-Fi, 3D TV가 있으며,  모텔 근방에 은행, 시장, 편의점 등이 있다. 모텔의 위치는 양산 종합운동장 건너편이며 시내버스 정류장과 가깝다.",18:00,12:00,http://shop1.phinf.naver.net/20191027_157/1572179514163IxrzD_PNG/9541056768299900_994281400.png
566,12,엘리시아,경상남도 양산시 원동면 청수골길 39,35.5231168205,129.0103525782,"배냇골의 중간, 파래소 폭포 골과 만나는 지점에 자리 잡고 있다. 펜션 왼쪽이 배냇골, 뒤쪽이 파래소 폭포 골이 된다. 배냇골 위쪽으로는 베네치아산장이 마주 보인다. 엘리시아는 배냇골에서 가장 최근에 생겼다. 동유럽풍의 시원스러운 목조건물이다.
건물 전체가 단층 구조지만 천장이 아주 높고 객실 모두가 복층으로 되어 있다. 1층은 주방과 거실, 다락방은 침실로 사용된다. 거실 창밖에는 테라스가 아주 넓고 야외 갑판이 하나씩 설치되어 있다.
또한, 엘리시아는 까만 자갈이 깔린 마당이 아주 넓다. 주변에 신불산 하단 휴양림과 파래소 폭포, 배냇골 폭포 등이 줄지어 있어 영남 알프스 여행의 베이스캠프로 사용키에 딱 좋은 곳이다.",14:00,12:00(성수기 11:00),https://i3.ruliweb.com/img/21/09/30/17c352e8a722eb697.png
567,12,배내골 배내밸리 펜션,경상남도 양산시 원동면 배내로 547,35.4954612319,128.9906050734,"기차를 이용하면 옛 추억의 낭만을 만끽할 수 있을 뿐만 아니라 펜션 앞까지 편안히 와서 여행을 즐길 수 있다. 봄, 가을은 국립공원 등산으로, 여름에는 시원한 배내골 계곡에서의 물놀이로, 겨울에는 스키와 보드로 추억을 만들 수 있는 곳이다.",14:00,12:00,https://modo-phinf.pstatic.net/20180418_12/15240606704411o7YQ_JPEG/mosaAVP6e4.jpeg
568,12,호텔여기어때 양산점,경상남도 양산시 북안남2길 6-9,35.3446401453,129.0365385693,호텔여기어때 양산점은 양산에 위치한 호텔 중 최고의 서비스 및 시설을 자랑한다. 5성급 호텔 고급 침구류를 사용하며(오리털이불) 전객실에 스타일러 완비 및 애견 위탁서비스가 가능하다.,13:00,12:00,http://imgnews.naver.net/image/5370/2018/02/23/0000042923_001_20180223104733046.png
569,12,풍호대산장펜션,경상남도 양산시 원동면 풍호대길 20-2,35.465514293,128.9740240194,영남의 알프스라 불리는 산군들을 헤집고 흘러 밀양댐으로 흘러드는 배내계곡. 물에서 배 맛이 난다 해서 배내라 불리는 상당히 큰 계곡이다. 영남 최대의 계곡으로 불리는 배내골의 중심 지대에 풍호대라는 마을이 있다. 이곳에 펜션 단지가 들어서 펜션마을로 통한다. 풍호대산장은 그곳 펜션마을의 정중앙에 자리잡고 있다. 풍호대 다리를 건너 마을 안으로 들어가면 풍호대산장 앞에서 길이 나뉜다. 통나무로 지어진 ㄱ 자의 건물 앞에는  제법 큰 연못이 있고 연못 위로 건물의 중앙으로 들어가는 다리가 놓여있는 재미난 곳이다. 1층과 2층이 각각 별개의 방으로 구성되어 있으면서도 계단으로 연결되어 있어 상호 이동이 가능하다. 때문에 인원이 많을 때는 1층과 2층을 함께 이용할 수도 있다. 주로 단체들이 많이 찾다 보니 커플들을 위한 아기자기한 소품이나 인테리어는 부족한 편이지만 넓은 운동장에는 족구장이 마련되어 있다.,14:00,11:00,http://tong.visitkorea.or.kr/cms/resource/31/386631_image2_1.jpg
570,12,배내의아침,경상남도 양산시 원동면 어실로 1425,35.4455109604,128.9726024749,"초입의 배내사거리에서 에덴밸리리조트쪽으로 1km 정도를 들어가면 도로와 계곡을 양쪽으로 맞대고 있는 배내의아침에 닿는다. 펜션 바로 뒤쪽이 넓은 암반 위로 맑은 계류가 흐르는 계곡이고 아래로 배내골을 이루는 산 어깨들이 끝없이 펼쳐진 풍광 좋은 곳이다. 이곳은 고급 원목으로만 지어져 주변 풍경과도 잘 어울린다.
두 개의 건물이 계곡을 따라 나란히 배치되어 있는데 1층은 연인과 가족을 위한 작은방이 2층은 단체팀을 위한 큰방들로 꾸며져 있다. 이외에도 야외바베큐장도 제법크게 갖춰져 있다.",14:00,12:00,https://ldb-phinf.pstatic.net/20190708_181/1562586596784hx8Sx_JPEG/7wyBsSZIHIrDHrAR0p0ZaYj4.jpg
571,12,산골이야기펜션 Ⅰ. Ⅱ,경상남도 양산시 원동면 배내로 73,35.4943946794,128.9902967965,"밀양댐과 신불산휴양림이 있는 배내골, 에덴밸리 스키장이 갈라지는 배내사거리에서 배내골과 신불산 휴양림쪽으로 내려가면 노르웨이 산장을 지나 고점교를 넘게 된다. 다리를 건너면 왼쪽에 성불사 가는 길이 곧바로 나서고 큰길은 작은 구비를 돈다. 바로 그곳 성불사로 들어가는 삼거리에 전원카페처럼 예쁘게 생긴 산골이야기 펜션이 있다.<br>펜션에서 길만 건너면 밀양댐으로 흘러드는 배내천이 흐르고 뒤로는 예쁘게 지어진 전원주택단지가 있어 마치 스위스에 있는 알프스의 산속마을을 연상케 한다. 펜션 옆에는 작은 잔디마당이 있고, 통나무로 된 테라스도 상당히 넓다.",14:00,11:00,http://tong.visitkorea.or.kr/cms/resource/49/388149_image2_1.jpg
572,12,에덴밸리리조트,경상남도 양산시 원동면 어실로 1206,35.4247357285,128.9839409477,"우리나라를 동서로 가르는 태백산맥의 끝자락인 신불산 1,200m 고지에 위치하며 민족의 영산인 태백산맥 줄기를 타고 영남의 알프스라고 불리는 가지산, 천성산, 신불산 줄기 끝에 세워진 스키장이 바로 이 에덴밸리 스키장이다. 
총면적 74만 평에 골프장이 30만 평 그리고 스키장이 33만 평 부지 안에 총 7면의 코스와 온천 지대에 세워진 255실의 화이트 팰리스 콘도미니엄이 고즈넉하게 들어서 있다.
에덴밸리리조트는 새로운 즐거움과 생활 에너지로 채운 휴식공간이다. 천혜의 대자연 속에서 만나는 특별한 휴식, 오래오래 머물고 싶은 편안함과 다양한 특혜를 누리는 즐거움은 생활 속 비타민이 된다. 영남의 스키장, 에덴밸리 스키장은 여유로운 플레이를 위한 슬로프와 충분한 수송력(시간당 1만 1천여 명)을 겸비한 리프트까지 세계의 스키어와 보더들이 주목하는 프로페셔널 그라운드이다. 다양한 경사도와 길이의 스키 코스는 초급에서 상급까지 각 수준의 스키어와 보더들을 모두 만족시키며, 스키장 전체에 스키어의 이동 및 분산이 용이하도록 과학적인 설계기법을 적용하여 세계적인 수준의 스키장을 완성하였다. 
그 밖의 에덴밸리리조트내 부대시설로는 워터파크, 연회장, 편의점, 오락&PC방, 승마장, 동물농장, 당구장, 스파테라피 등이 마련되어 있다.",14:00,11:00,https://mimg2.coupangcdn.com/thumbnails/remote/595/image/product/content/vendorItemPackage/2017/01/13/3013773122/0c043f80-38bd-4456-b746-54899b5503ec.jpg
573,13,달강,경상남도 진주시 대평면 호반로 405,35.1596670017,127.991212766,"‘달 그리고 강’이라는 서정적인 이름을 가진 펜션 ‘달강’. 
진양호에 비친 달이 너무 아름다워 펜션 이름을 달강으로 했다고 한다. 처음에는 카페로 시작했다가 점차 펜션 건물을 지으면서 어느덧 총 10개의 객실을 갖춘 규모 있는 펜션으로 변모하여 오늘에 이르렀다. 현재도 달강은 변화를 거듭하는 중이다. 이름에서 느껴지듯 ‘달 그리고 강’은 자연친화적인 펜션을 표방하였다. 100% 순수 황토와 소나무를 사용한 것도 그 이유다. 황토가 신진대사를 원활하게 하고 만성피로 회복 등에 효과적인 것은 널리 알려진 사실. 피로가 심한 도시인들이라면 특히 반가워할 만하다. 여기에 누구나 이곳을 한눈에 반하게 만드는 것이 바로 호숫가에 조성된 산책로다. 이후 이것을 더욱 확대하여 펜션을 한 바퀴 에두르는 둘레길로 만들 예정이라고 한다. 아늑한 호수를 유유히 산책을 즐기고 저녁에는 황토방에서 꿀 같은 단잠을 즐기는 100% 휴식이라면 그 어느 곳도 부럽지 않을 듯하다. 
규모가 큰 만큼 여러 가지 즐길 거리도 풍부하다. 우선 족구장과 작은 골프 연습장이 마련되어 있고, 펜션 자체가 정원이라고 해도 될 만큼 꽃과 나무가 많다. 객실별로 바비큐 시설이 마련되었고, 온실에선 분재를 감상할 수 있으며, 자전거를 타고 진양호를 만끽할 수도 있다. 잔디밭에 마련된 야외무대는 단체손님들도 사용 가능하다. 객실은 깨끗하게 관리되며, 수련, 물망초, 진달래, 들국화, 봉선화, 수선화 객실은 침실이 2층에 따로 있어 편안한 분위기를 더한다.",14:00,11:00,http://imgnews.naver.net/image/5160/2014/05/22/836299_265057_249_59_20140522205500.jpg
